[
  {
    "title": "Panama City Beach",
    "address": "Panama City Beach, FL 32407",
    "phone": "",
    "lat": 30.176592,
    "lng": -85.805489,
    "icon": "/images/icons/beach.png",
    "contentString": "Beach blurb goes here",
    "category": "beach"
  },
  {
    "title": "Destin Beach",
    "address": "17000 Emerald Coast Pkwy, Destin, FL 32541",
    "phone": "",
    "lat": 30.393681,
    "lng": -86.495659,
    "icon": "/images/icons/beach.png",
    "contentString": "Beach blurb goes here",
    "category": "beach"
  },
  {
    "title": "Amelia Island Beach",
    "address": "S Fletcher Ave, Fernandina Beach, FL 32034",
    "phone": "",
    "lat": 30.62657,
    "lng": -81.460854,
    "icon": "/images/icons/beach.png",
    "contentString": "Beach blurb goes here",
    "category": "beach"
  },
  {
    "title": "St. Augustine Beach",
    "address": "350 A1A Beach Blvd, St. Augustine, FL 32080",
    "phone": "",
    "lat": 29.85202,
    "lng": -81.267319,
    "icon": "/images/icons/beach.png",
    "contentString": "Beach blurb goes here",
    "category": "beach"
  },
  {
    "title": "Cocoa Beach",
    "address": "1500 N Atlantic Ave, Cocoa Beach, FL 32931",
    "phone": "",
    "lat": 28.320221,
    "lng": -80.608871,
    "icon": "/images/icons/beach.png",
    "contentString": "Beach blurb goes here",
    "category": "beach"
  },
  {
    "title": "Clearwater beach",
    "address": "1 Causeway Blvd, Clearwater, FL 33767",
    "phone": "",
    "lat": 27.92444,
    "lng": -82.841003,
    "icon": "/images/icons/beach.png",
    "contentString": "Beach blurb goes here",
    "category": "beach"
  },
  {
    "title": "Vero Beach",
    "address": "3000 Ocean Dr, Vero Beach, FL 32963",
    "phone": "",
    "lat": 27.63888,
    "lng": -80.389076,
    "icon": "/images/icons/beach.png",
    "contentString": "Beach blurb goes here",
    "category": "beach"
  },
  {
    "title": "Longboat Key Beach",
    "address": "2825 Gulf of Mexico Dr, Longboat Key, FL 34228",
    "phone": "",
    "lat": 27.412542,
    "lng": -82.658989,
    "icon": "/images/icons/beach.png",
    "contentString": "Beach blurb goes here",
    "category": "beach"
  },
  {
    "title": "Fort De Soto Park in Tierra Verde Beach",
    "address": "3500 Pinellas Bayway S, St. Petersburg, FL 33715",
    "phone": "",
    "lat": 27.62509,
    "lng": -82.71264,
    "icon": "/images/icons/beach.png",
    "contentString": "Beach blurb goes here",
    "category": "beach"
  },
  {
    "title": "Pass-a-Grille Beach in St. Petersburg",
    "address": "Gulf Way, St Pete Beach, FL 33706",
    "phone": "",
    "lat": 27.69507,
    "lng": -82.7359,
    "icon": "/images/icons/beach.png",
    "contentString": "Beach blurb goes here",
    "category": "beach"
  },
  {
    "title": "Siesta Key in Sarasota Beach",
    "address": "948 Beach Rd, Sarasota, FL 34242",
    "phone": "",
    "lat": 27.26619,
    "lng": -82.54565,
    "icon": "/images/icons/beach.png",
    "contentString": "Beach blurb goes here",
    "category": "beach"
  },
  {
    "title": "Blowing Rocks Preserve Beach",
    "address": "19450 County Hwy 707, Tequesta, FL 33469",
    "phone": "",
    "lat": 26.90553,
    "lng": -80.13208,
    "icon": "/images/icons/beach.png",
    "contentString": "Beach blurb goes here",
    "category": "beach"
  },
  {
    "title": "Carlin Park Beach in Jupiter",
    "address": "400 Florida A1A, Jupiter, FL 33477",
    "phone": "",
    "lat": 26.93414,
    "lng": -80.09974,
    "icon": "/images/icons/beach.png",
    "contentString": "Beach blurb goes here",
    "category": "beach"
  },
  {
    "title": "Lighthouse Beach Park in Sanibel Island",
    "address": "112 Periwinkle Way, Sanibel, FL 33957",
    "phone": "",
    "lat": 26.31783,
    "lng": -80.08352,
    "icon": "/images/icons/beach.png",
    "contentString": "Beach blurb goes here",
    "category": "beach"
  },
  {
    "title": "Captiva Island Beach",
    "address": "1700 Bowmans Beach Rd, Sanibel, FL 33957",
    "phone": "",
    "lat": 26.51985,
    "lng": -82.189903,
    "icon": "/images/icons/beach.png",
    "contentString": "Beach blurb goes here",
    "category": "beach"
  },
  {
    "title": "Bonita Beach Dog Beach in Fort Myers",
    "address": "8800 Estero Blvd, Fort Myers Beach, FL 33931",
    "phone": "",
    "lat": 26.43695,
    "lng": -81.92165,
    "icon": "/images/icons/beach.png",
    "contentString": "Beach blurb goes here",
    "category": "beach"
  },
  {
    "title": "South Beach Miami",
    "address": "4031 NW 2nd Ave, Miami, FL 33127",
    "phone": "",
    "lat": 25.8139,
    "lng": -80.19928,
    "icon": "/images/icons/beach.png",
    "contentString": "Beach blurb goes here",
    "category": "beach"
  },
  {
    "title": "Cape Florida Lighthouse and Beach",
    "address": "1200 South Crandon Blvd, Key Biscayne, FL 33149",
    "phone": "",
    "lat": 25.67247,
    "lng": -80.15541,
    "icon": "/images/icons/beach.png",
    "contentString": "Beach blurb goes here",
    "category": "beach"
  },
  {
    "title": "Smathers Beach in Key West",
    "address": "2601 S Roosevelt Blvd, Key West, FL 33040",
    "phone": "",
    "lat": 29.84056,
    "lng": -81.27058,
    "icon": "/images/icons/beach.png",
    "contentString": "Beach blurb goes here",
    "category": "beach"
  },
  {
    "title": "Rest Beach",
    "address": "1000 Atlantic Blvd, Key West, FL 33040",
    "phone": "",
    "lat": 29.26245,
    "lng": -81.15627,
    "icon": "/images/icons/beach.png",
    "contentString": "Beach blurb goes here",
    "category": "beach"
  },
  {
    "title": "MUV Dispensary in Apollo Beach",
    "address": "5999 US-41, Apollo Beach, FL 33570",
    "phone": "(833) 880-5420",
    "lat": 27.76149,
    "lng": -82.39696,
    "icon": "/images/icons/weed.png",
    "contentString": "Dispensaries blurb goes here",
    "category": "dispensaries"
  },
  {
    "title": "Liberty Health Sciences- Medical Marijuana Dispensary",
    "address": "9912 Glades Rd, Boca Raton, FL 33434",
    "phone": "(561) 939-6655",
    "lat": 26.36677,
    "lng": -80.20157,
    "icon": "/images/icons/weed.png",
    "contentString": "Dispensaries blurb goes here",
    "category": "dispensaries"
  },
  {
    "title": "Columbia Care Bonita Springs Dispensary",
    "address": "8800 Terrene Ct, Bonita Springs, FL 34135",
    "phone": "(239) 345-4024",
    "lat": 26.35354,
    "lng": -81.80708,
    "icon": "/images/icons/weed.png",
    "contentString": "Dispensaries blurb goes here",
    "category": "dispensaries"
  },
  {
    "title": "One Plant Boynton Beach Dispensary",
    "address": "202 E Boynton Beach Blvd, Boynton Beach, FL 33435",
    "phone": "(877) 308-3344",
    "lat": 26.52839,
    "lng": -80.06191,
    "icon": "/images/icons/weed.png",
    "contentString": "Dispensaries blurb goes here",
    "category": "dispensaries"
  },
  {
    "title": "Columbia Care Bradenton Dispensary",
    "address": "4549 W 14th St, Bradenton , FL 34207",
    "phone": "(941) 216-7838",
    "lat": 27.45904,
    "lng": -82.57531,
    "icon": "/images/icons/weed.png",
    "contentString": "Dispensaries blurb goes here",
    "category": "dispensaries"
  },
  {
    "title": "Grow Healthy Brandon Dispensary",
    "address": "1525 E Brandon Blvd, Brandon, FL 33511",
    "phone": "(813) 413-5020",
    "lat": 27.9371,
    "lng": -82.26248,
    "icon": "/images/icons/weed.png",
    "contentString": "Dispensaries blurb goes here",
    "category": "dispensaries"
  },
  {
    "title": "Surterra Wellness Brooksville Dispensary",
    "address": "745 S Broad St, Brooksville, FL 34601",
    "phone": "(850) 391-5455",
    "lat": 28.5553,
    "lng": -82.3879,
    "icon": "/images/icons/weed.png",
    "contentString": "Dispensaries blurb goes here",
    "category": "dispensaries"
  },
  {
    "title": "Columbia Care Cape Coral Dispensary",
    "address": "2126 Del Prado Blvd S, Cape Coral, FL 32216",
    "phone": "(239) 347-4574",
    "lat": 26.61234,
    "lng": -81.94141,
    "icon": "/images/icons/weed.png",
    "contentString": "Dispensaries blurb goes here",
    "category": "dispensaries"
  },
  {
    "title": "FLUENT Cannabis Casselberry Dispensary",
    "address": "487 Semoran Blvd, Casselberry, FL 32730",
    "phone": "(888) 441-5669",
    "lat": 28.65495,
    "lng": -81.3339,
    "icon": "/images/icons/weed.png",
    "contentString": "Dispensaries blurb goes here",
    "category": "dispensaries"
  },
  {
    "title": "FLUENT Cannabis Clearwater Dispensary",
    "address": "921 S Missouri Ave, Clearwater, FL 33756",
    "phone": "(727) 219-9198",
    "lat": 27.95562,
    "lng": -82.78724,
    "icon": "/images/icons/weed.png",
    "contentString": "Dispensaries blurb goes here",
    "category": "dispensaries"
  },
  {
    "title": "Liberty Health Sciences Dania Beach Dispensary",
    "address": "1103 S Federal Hwy, Dania Beach, FL 33004",
    "phone": "(754) 231-4884",
    "lat": 26.03771,
    "lng": -80.14329,
    "icon": "/images/icons/weed.png",
    "contentString": "Dispensaries blurb goes here",
    "category": "dispensaries"
  },
  {
    "title": "Curaleaf FL Daytona Beach Dispensary",
    "address": "910 W International Speedway Blvd, Daytona Beach, FL 32114",
    "phone": "(386) 271-4732",
    "lat": 29.20506,
    "lng": -81.03644,
    "icon": "/images/icons/weed.png",
    "contentString": "Dispensaries blurb goes here",
    "category": "dispensaries"
  },
  {
    "title": "Curaleaf FL Deerfield Beach Dispensary",
    "address": "148 N Federal Hwy, Deerfield Beach, FL 33441",
    "phone": "754) 212-0060",
    "lat": 26.32016,
    "lng": -80.09057,
    "icon": "/images/icons/weed.png",
    "contentString": "Dispensaries blurb goes here",
    "category": "dispensaries"
  },
  {
    "title": "Medical Cannabis Clinics of Florida- MM Certification Delray Beach Dispensary",
    "address": "16244 S Military Trail STE 150, Delray Beach, FL 33484",
    "phone": "(850) 391-5455",
    "lat": 26.44858,
    "lng": -80.20578,
    "icon": "/images/icons/weed.png",
    "contentString": "Dispensaries blurb goes here",
    "category": "dispensaries"
  },
  {
    "title": "Surterra Wellness Deltona Dispensary",
    "address": "1200 Deltona Blvd Ste 2, Deltona, FL 32725",
    "phone": "(850) 391-5455",
    "lat": 28.89645,
    "lng": -81.27201,
    "icon": "/images/icons/weed.png",
    "contentString": "Dispensaries blurb goes here",
    "category": "dispensaries"
  },
  {
    "title": "Trulieve Destin Dispensary",
    "address": "868 Hwy 98 E Shoreline Village Mall, Destin, FL 32541",
    "phone": "(850) 204-9031",
    "lat": 30.38881,
    "lng": -86.48048,
    "icon": "/images/icons/weed.png",
    "contentString": "Dispensaries blurb goes here",
    "category": "dispensaries"
  },
  {
    "title": "Trulieve Edgewater Dispensary",
    "address": "103 Boston Rd, Edgewater, FL 32141",
    "phone": "(386) 478-4081",
    "lat": 28.97059,
    "lng": -80.8936,
    "icon": "/images/icons/weed.png",
    "contentString": "Dispensaries blurb goes here",
    "category": "dispensaries"
  },
  {
    "title": "Trulieve Fernandina Beach Dispensary",
    "address": "474285 E State Rd, Fernandina, FL 32034",
    "phone": "(954) 399-6595",
    "lat": 30.61861,
    "lng": -81.51613,
    "icon": "/images/icons/weed.png",
    "contentString": "Dispensaries blurb goes here",
    "category": "dispensaries"
  },
  {
    "title": "Trulieve Fort Lauderdale Dispensary",
    "address": "1417 SW 40th Ter, Fort Lauderdale, FL 33317",
    "phone": "(954) 399-6595",
    "lat": 26.0724,
    "lng": -80.15723,
    "icon": "/images/icons/weed.png",
    "contentString": "Dispensaries blurb goes here",
    "category": "dispensaries"
  },
  {
    "title": "Curaleaf FL Fort Myers Dispensary",
    "address": "4480 Fowler St, Fort Myers, FL 33901",
    "phone": "(239) 244-9629",
    "lat": 26.59825,
    "lng": -81.86221,
    "icon": "/images/icons/weed.png",
    "contentString": "Dispensaries blurb goes here",
    "category": "dispensaries"
  },
  {
    "title": "Curaleaf Fort Pierce Dispensary",
    "address": "3218 US Hwy 1, Fort Pierce, FL 34982",
    "phone": "(772) 577-7762",
    "lat": 27.40805,
    "lng": -80.32539,
    "icon": "/images/icons/weed.png",
    "contentString": "Dispensaries blurb goes here",
    "category": "dispensaries"
  },
  {
    "title": "FLUENT Fort Walton Beach Dispensary",
    "address": "109 Racetrack Rd NE Ste F, Fort Walton Beach, FL 32547",
    "phone": "(850) 200-0828",
    "lat": 30.44903,
    "lng": -86.6143,
    "icon": "/images/icons/weed.png",
    "contentString": "Dispensaries blurb goes here",
    "category": "dispensaries"
  },
  {
    "title": "Columbia Care Gainesville Dispensary",
    "address": "318 NW 13th St, Gainesville, FL 32601",
    "phone": "(352) 415-1824",
    "lat": 29.65461,
    "lng": -82.33952,
    "icon": "/images/icons/weed.png",
    "contentString": "Dispensaries blurb goes here",
    "category": "dispensaries"
  },
  {
    "title": "RISE Hallandale Beach Dispensary",
    "address": "308 N Federal Hwy, Hallandale Beach, FL 33009",
    "phone": "(561) 440-2360",
    "lat": 25.98961,
    "lng": -80.1422,
    "icon": "/images/icons/weed.png",
    "contentString": "Dispensaries blurb goes here",
    "category": "dispensaries"
  },
  {
    "title": "VidaCann Holly Hill Dispensary",
    "address": "1027 N Nova Rd Ste 105, Holly Hill, FL 32117",
    "phone": "(386) 281-3296",
    "lat": 29.22628,
    "lng": -81.04989,
    "icon": "/images/icons/weed.png",
    "contentString": "Dispensaries blurb goes here",
    "category": "dispensaries"
  },
  {
    "title": "Columbia Care Jacksonville Dispensary",
    "address": "4332 University Blvd S, Jacksonville, FL 32216",
    "phone": "(904) 694-2174",
    "lat": 30.27851,
    "lng": -81.60335,
    "icon": "/images/icons/weed.png",
    "contentString": "Dispensaries blurb goes here",
    "category": "dispensaries"
  },
  {
    "title": "Curaleaf Jensen Beach Dispensary",
    "address": "3631 NW Federal Hwy, Jensen Beach, FL 34957",
    "phone": "(772) 934-9575",
    "lat": 27.24831,
    "lng": -80.2718,
    "icon": "/images/icons/weed.png",
    "contentString": "Dispensaries blurb goes here",
    "category": "dispensaries"
  },
  {
    "title": "MedMenKey West Dispensary",
    "address": "130 Duval St, Key West, FL 33040",
    "phone": "(786) 625-7732",
    "lat": 24.55905,
    "lng": -81.80562,
    "icon": "/images/icons/weed.png",
    "contentString": "Dispensaries blurb goes here",
    "category": "dispensaries"
  },
  {
    "title": "Harvest HOC Kissimmee Dispensary",
    "address": "4967 W Irlo Bronson Memorial Hwy, Kissimmee, FL 34746",
    "phone": "(407) 693-0490",
    "lat": 28.3337,
    "lng": -81.48111,
    "icon": "/images/icons/weed.png",
    "contentString": "Dispensaries blurb goes here",
    "category": "dispensaries"
  },
  {
    "title": "MUV Lady Lake Dispensary",
    "address": "929 US-441 Hwy Ste 202, Lady Lake, FL 32159",
    "phone": "(833) 880-5420",
    "lat": 28.93525,
    "lng": -81.93779,
    "icon": "/images/icons/weed.png",
    "contentString": "Dispensaries blurb goes here",
    "category": "dispensaries"
  },
  {
    "title": "Curaleaf Lake Worth Dispensary",
    "address": "1125 N Dixie Hwy Ste C, Lake Worth, FL 33460",
    "phone": "(561) 612-4455",
    "lat": 26.62952,
    "lng": -80.05718,
    "icon": "/images/icons/weed.png",
    "contentString": "Dispensaries blurb goes here",
    "category": "dispensaries"
  },
  {
    "title": "Curaleaf Lakeland Dispensary",
    "address": "3145 US Hwy 98 N, Lakeland, FL 33805",
    "phone": "(863) 213-1037",
    "lat": 28.0816,
    "lng": -81.96482,
    "icon": "/images/icons/weed.png",
    "contentString": "Dispensaries blurb goes here",
    "category": "dispensaries"
  },
  {
    "title": "Surterra Largo Dispensary",
    "address": "10761 Ulmerton Rd, Largo, FL 33778",
    "phone": "(850) 391-5455",
    "lat": 27.89505,
    "lng": -82.788292,
    "icon": "/images/icons/weed.png",
    "contentString": "Dispensaries blurb goes here",
    "category": "dispensaries"
  },
  {
    "title": "Harvest HOC Longwood Dispensary",
    "address": "182 W State Rd 434 #1016, Longwood, FL 32750",
    "phone": "(321) 244-6035",
    "lat": 28.69791,
    "lng": -81.35084,
    "icon": "/images/icons/weed.png",
    "contentString": "Dispensaries blurb goes here",
    "category": "dispensaries"
  },
  {
    "title": "Curaleaf Lutz Dispensary",
    "address": "1408 N Dale Mabry Hwy, Lutz, FL 33548",
    "phone": "(813) 803-8188",
    "lat": 28.16373,
    "lng": -82.4793,
    "icon": "/images/icons/weed.png",
    "contentString": "Dispensaries blurb goes here",
    "category": "dispensaries"
  },
  {
    "title": "Columbia Care Melbourne Dispensary",
    "address": "21 Suntree Pl, Melbourne, FL 32803",
    "phone": "(321) 294-4465",
    "lat": 28.22793,
    "lng": -80.67951,
    "icon": "/images/icons/weed.png",
    "contentString": "Dispensaries blurb goes here",
    "category": "dispensaries"
  },
  {
    "title": "Liberty Health SciencesMerritt Island Dispensary",
    "address": "150 E Merritt Island Cswy, Merritt Island, FL 32952",
    "phone": "(321) 305-6173",
    "lat": 28.35742,
    "lng": -80.69726,
    "icon": "/images/icons/weed.png",
    "contentString": "Dispensaries blurb goes here",
    "category": "dispensaries"
  },
  {
    "title": "Curaleaf Miami Dispensary",
    "address": "9002 S Dadeland Blvd, Miami, FL 33156",
    "phone": "(786) 577-3976",
    "lat": 25.68655,
    "lng": -80.3134,
    "icon": "/images/icons/weed.png",
    "contentString": "Dispensaries blurb goes here",
    "category": "dispensaries"
  },
  {
    "title": "Surterra Miami Beach Dispensary",
    "address": "1523 Alton Rd Ste 9, Miami Beach, FL 33139",
    "phone": "(850) 391-5455",
    "lat": 25.78796,
    "lng": -80.14072,
    "icon": "/images/icons/weed.png",
    "contentString": "Dispensaries blurb goes here",
    "category": "dispensaries"
  },
  {
    "title": "Trulieve Miami Gardens Dispensary",
    "address": "18350 NW 47th Ave, Miami Gardens, FL 33055",
    "phone": "(786) 632-1516",
    "lat": 25.94068,
    "lng": -80.27788,
    "icon": "/images/icons/weed.png",
    "contentString": "Dispensaries blurb goes here",
    "category": "dispensaries"
  },
  {
    "title": "FLUENT New Port Richey Dispensary",
    "address": "5138 Deer Park Dr, New Port Richey, FL 34653",
    "phone": "(833) 735-8368",
    "lat": 28.23461,
    "lng": -82.6678,
    "icon": "/images/icons/weed.png",
    "contentString": "Dispensaries blurb goes here",
    "category": "dispensaries"
  },
  {
    "title": "Curaleaf North Miami Beach Dispensary",
    "address": "16685 NW 2nd Ave, North Miami Beach, FL 33169",
    "phone": "(786) 605-0830",
    "lat": 25.92977,
    "lng": -80.20445,
    "icon": "/images/icons/weed.png",
    "contentString": "Dispensaries blurb goes here",
    "category": "dispensaries"
  },
  {
    "title": "Surterra North Palm Beach Dispensary",
    "address": "11575 US Hwy 1, North Palm Beach, FL 33408",
    "phone": "391-5455",
    "lat": 26.80375,
    "lng": -80.05541,
    "icon": "/images/icons/weed.png",
    "contentString": "Dispensaries blurb goes here",
    "category": "dispensaries"
  },
  {
    "title": "Harvest HOC North Port Dispensary",
    "address": "7050 Sumter Crossing Dr, North Port, FL 34287",
    "phone": "(941) 200-6098",
    "lat": 27.033751,
    "lng": -82.21212,
    "icon": "/images/icons/weed.png",
    "contentString": "Dispensaries blurb goes here",
    "category": "dispensaries"
  },
  {
    "title": "Curaleaf Ocala Dispensary",
    "address": "1839 SW College Rd, Ocala, FL 34471",
    "phone": "(352) 619-2540",
    "lat": 27.033751,
    "lng": -82.21212,
    "icon": "/images/icons/weed.png",
    "contentString": "Dispensaries blurb goes here",
    "category": "dispensaries"
  },
  {
    "title": "Curaleaf Orange Park Dispensary",
    "address": "495 Blanding Blvd, Orange Park, FL 32073",
    "phone": "(904) 541-8805",
    "lat": 27.033751,
    "lng": -82.21212,
    "icon": "/images/icons/weed.png",
    "contentString": "Dispensaries blurb goes here",
    "category": "dispensaries"
  },
  {
    "title": "Columbia Care Orlando Dispensary",
    "address": "10615 E Colonial Drive, Orlando, FL 32803",
    "phone": "407) 843-3445",
    "lat": 27.033751,
    "lng": -82.21212,
    "icon": "/images/icons/weed.png",
    "contentString": "Dispensaries blurb goes here",
    "category": "dispensaries"
  },
  {
    "title": "MUV Ormond Beach Dispensary",
    "address": "290 Clyde Morris Blvd Ste B2, Ormond Beach, FL 32174",
    "phone": "(833) 880-5420",
    "lat": 29.27143,
    "lng": -81.09715,
    "icon": "/images/icons/weed.png",
    "contentString": "Dispensaries blurb goes here",
    "category": "dispensaries"
  },
  {
    "title": "RISE Oviedo Dispensary",
    "address": "4301 Alafaya Trl, Oviedo, FL 32765",
    "phone": "(407) 449-2230",
    "lat": 28.61229,
    "lng": -81.20828,
    "icon": "/images/icons/weed.png",
    "contentString": "Dispensaries blurb goes here",
    "category": "dispensaries"
  },
  {
    "title": "Curaleaf Palm Bay Dispensary",
    "address": "1420 Palm Bay Rd NE, Palm Bay, FL 32905",
    "phone": "(321) 373-0033",
    "lat": 28.03463,
    "lng": -80.63034,
    "icon": "/images/icons/weed.png",
    "contentString": "Dispensaries blurb goes here",
    "category": "dispensaries"
  },
  {
    "title": "Surterra Palm Coast Dispensary",
    "address": "100 Flagler Plaza Dr, Palm Coast, FL 32137",
    "phone": "(850) 391-5455",
    "lat": 29.47543,
    "lng": -81.17943,
    "icon": "/images/icons/weed.png",
    "contentString": "Dispensaries blurb goes here",
    "category": "dispensaries"
  },
  {
    "title": "Curaleaf Palm Harbor Dispensary",
    "address": "35388 US Hwy 19 N, Palm Harbor, FL 34684",
    "phone": "(727) 288-9922",
    "lat": 28.09309,
    "lng": -82.73974,
    "icon": "/images/icons/weed.png",
    "contentString": "Dispensaries blurb goes here",
    "category": "dispensaries"
  },
  {
    "title": "Kaya Life Cannabis Clinicians Panama City Dispensary",
    "address": "3704 W 23rd St, Panama City, FL 32405",
    "phone": "(850) 213-1215",
    "lat": 30.1805,
    "lng": -85.70845,
    "icon": "/images/icons/weed.png",
    "contentString": "Dispensaries blurb goes here",
    "category": "dispensaries"
  },
  {
    "title": "GrowHealthy Pensacola Dispensary",
    "address": "7817 N Davis Hwy, Pensacola, FL 32514",
    "phone": "(850) 505-3160",
    "lat": 30.51904,
    "lng": -87.21404,
    "icon": "/images/icons/weed.png",
    "contentString": "Dispensaries blurb goes here",
    "category": "dispensaries"
  },
  {
    "title": "RISE Pinellas Park Dispensary",
    "address": "6999 US Hwy 19 N, Pinellas Park, FL 33781",
    "phone": "(727) 275-1933",
    "lat": 27.83562,
    "lng": -82.6812,
    "icon": "/images/icons/weed.png",
    "contentString": "Dispensaries blurb goes here",
    "category": "dispensaries"
  },
  {
    "title": "Curaleaf Port Charlotte Dispensary",
    "address": "1994 Kings Hwy, Port Charlotte, FL 33980",
    "phone": "(941) 628-7031",
    "lat": 26.98626,
    "lng": -82.06175,
    "icon": "/images/icons/weed.png",
    "contentString": "Dispensaries blurb goes here",
    "category": "dispensaries"
  },
  {
    "title": "Surterra Port Orange Dispensary",
    "address": "3665 S Clyde Morris Blvd, Port Orange, FL 32129",
    "phone": "(850) 391-5455",
    "lat": 29.14911,
    "lng": -81.0343,
    "icon": "/images/icons/weed.png",
    "contentString": "Dispensaries blurb goes here",
    "category": "dispensaries"
  },
  {
    "title": "Liberty Health Sciences Port St. Lucie Dispensary",
    "address": "10941 US Hwy 1, Port St. Lucie, FL 34952",
    "phone": "(772) 249-4199",
    "lat": 27.26463,
    "lng": -80.28536,
    "icon": "/images/icons/weed.png",
    "contentString": "Dispensaries blurb goes here",
    "category": "dispensaries"
  },
  {
    "title": "Curaleaf Sanford Dispensary",
    "address": "610 Lake Minnie Dr, Sanford, FL 32773",
    "phone": "(407) 531-8588",
    "lat": 28.75114,
    "lng": -81.29082,
    "icon": "/images/icons/weed.png",
    "contentString": "Dispensaries blurb goes here",
    "category": "dispensaries"
  },
  {
    "title": "Columbia Care Sarasota Dispensary",
    "address": "6979 S Tamiami Trl, Sarasota, FL 34231",
    "phone": "(941) 500-3128",
    "lat": 27.25518,
    "lng": -82.51685,
    "icon": "/images/icons/weed.png",
    "contentString": "Dispensaries blurb goes here",
    "category": "dispensaries"
  },
  {
    "title": "MUV Sebastian Dispensary",
    "address": "1701 US 1 Ste 3-5, Sebastian, FL 32958",
    "phone": "(833) 880-5420",
    "lat": 27.82661,
    "lng": -80.47728,
    "icon": "/images/icons/weed.png",
    "contentString": "Dispensaries blurb goes here",
    "category": "dispensaries"
  },
  {
    "title": "The Botanist Spring Hill Dispensary",
    "address": "10520 Spring Hill Dr, Spring Hill, FL 34608",
    "phone": "(352) 355-4322",
    "lat": 28.46011,
    "lng": -82.54403,
    "icon": "/images/icons/weed.png",
    "contentString": "Dispensaries blurb goes here",
    "category": "dispensaries"
  },
  {
    "title": "Columbia Care St. Augustine Dispensary",
    "address": "160 King St, St. Augustine, FL 32084",
    "phone": "(904) 830-0011",
    "lat": 29.89141,
    "lng": -81.32361,
    "icon": "/images/icons/weed.png",
    "contentString": "Dispensaries blurb goes here",
    "category": "dispensaries"
  },
  {
    "title": "Curaleaf St. Petersburg Dispensary",
    "address": "3811 Tyrone Blvd, St. Petersburg, FL 33709",
    "phone": "(727) 369-9019",
    "lat": 27.80671,
    "lng": -82.74949,
    "icon": "/images/icons/weed.png",
    "contentString": "Dispensaries blurb goes here",
    "category": "dispensaries"
  },
  {
    "title": "Curaleaf Stuart Dispensary",
    "address": "4203 SE Federal Hwy Ste 103, Stuart, FL 34997",
    "phone": "(772) 678-3958",
    "lat": 27.15403,
    "lng": -80.21829,
    "icon": "/images/icons/weed.png",
    "contentString": "Dispensaries blurb goes here",
    "category": "dispensaries"
  },
  {
    "title": "Liberty Health Sciences Summerfield Dispensary",
    "address": "16810 US-441 Ste 501, Summerfield, FL 34491",
    "phone": "(352) 307-2177",
    "lat": 28.97807,
    "lng": -81.98377,
    "icon": "/images/icons/weed.png",
    "contentString": "Dispensaries blurb goes here",
    "category": "dispensaries"
  },
  {
    "title": "Curaleaf Tallahassee Dispensary",
    "address": "1345 Thomasville Rd, Tallahassee, FL 32303",
    "phone": "(850) 848-4768",
    "lat": 30.45783,
    "lng": -84.27677,
    "icon": "/images/icons/weed.png",
    "contentString": "Dispensaries blurb goes here",
    "category": "dispensaries"
  },
  {
    "title": "Curaleaf Tampa Dispensary",
    "address": "6421 N Florida Ave, Tampa, FL 33604",
    "phone": "(813) 497-2028",
    "lat": 28.00554,
    "lng": -82.45922,
    "icon": "/images/icons/weed.png",
    "contentString": "Dispensaries blurb goes here",
    "category": "dispensaries"
  },
  {
    "title": "The Villages Dispensary",
    "address": "13940 US-441 Ste 601, The Villages, FL 32159",
    "phone": "(352) 240-3805",
    "lat": 28.94895,
    "lng": -81.95415,
    "icon": "/images/icons/weed.png",
    "contentString": "Dispensaries blurb goes here",
    "category": "dispensaries"
  },
  {
    "title": "Titusville Dispensary",
    "address": "200 S Washington Ave, Titusville, FL 32796",
    "phone": "(321) 567-1212",
    "lat": 28.61331,
    "lng": -80.80782,
    "icon": "/images/icons/weed.png",
    "contentString": "Dispensaries blurb goes here",
    "category": "dispensaries"
  },
  {
    "title": "Venice Dispensary",
    "address": "1290 Jacaranda Blvd, Venice, FL 34292",
    "phone": "(941) 800-2003",
    "lat": 27.09951,
    "lng": -82.384087,
    "icon": "/images/icons/weed.png",
    "contentString": "Dispensaries blurb goes here",
    "category": "dispensaries"
  },
  {
    "title": "Cureleaf CBD LLC DBA Vero Beach Dispensary",
    "address": "676 US-1 Vero Beach, FL 32962",
    "phone": "(772) 713-0921",
    "lat": 27.6386,
    "lng": -80.3973,
    "icon": "/images/icons/weed.png",
    "contentString": "Dispensaries blurb goes here",
    "category": "dispensaries"
  },
  {
    "title": "Wellington Dispensary",
    "address": "1045 S State Rd 7 Ste 200, Wellington, FL 33414",
    "phone": "(833) 880-5420",
    "lat": 26.66301,
    "lng": -80.20524,
    "icon": "/images/icons/weed.png",
    "contentString": "Dispensaries blurb goes here",
    "category": "dispensaries"
  },
  {
    "title": "Wesley Chapel Dispensary",
    "address": "27437 Wesley Chapel Blvd, Wesley Chapel, FL 33544",
    "phone": "(813) 734-8936",
    "lat": 28.23868,
    "lng": -82.36224,
    "icon": "/images/icons/weed.png",
    "contentString": "Dispensaries blurb goes here",
    "category": "dispensaries"
  },
  {
    "title": "West Palm Beach Dispensary",
    "address": "237 Okeechobee Blvd, West Palm Beach, FL 33409",
    "phone": "(561) 675-0890",
    "lat": 26.70547,
    "lng": -80.05159,
    "icon": "/images/icons/weed.png",
    "contentString": "Dispensaries blurb goes here",
    "category": "dispensaries"
  },
  {
    "title": "Winter Haven Dispensary",
    "address": "285 1st St, Winter Haven, FL 33880",
    "phone": "(863) 656-5777",
    "lat": 28.01881,
    "lng": -81.72691,
    "icon": "/images/icons/weed.png",
    "contentString": "Dispensaries blurb goes here",
    "category": "dispensaries"
  },
  {
    "title": "Masa Firearms Gun Store",
    "address": "11070 WIles Rd, Suite A, Coral Springs, Florida 33321",
    "phone": "954-675-4308",
    "lat": 26.28686,
    "lng": -80.27428,
    "icon": "/images/icons/gun.png",
    "contentString": "Gun store blurb goes here",
    "category": "gunstore"
  },
  {
    "title": "Florida Gun Center Gun Store",
    "address": "4841 Volunteer Rd, Davie, Florida 33330",
    "phone": "954-533-3740",
    "lat": 26.05995,
    "lng": -80.34611,
    "icon": "/images/icons/gun.png",
    "contentString": "Gun store blurb goes here",
    "category": "gunstore"
  },
  {
    "title": "Gun World of South Florida Gun Store",
    "address": "1700 South Powerline Road, Deerfield Beach, Florida 33442",
    "phone": "954-596-0526",
    "lat": 26.2928,
    "lng": -80.15167,
    "icon": "/images/icons/gun.png",
    "contentString": "Gun store blurb goes here",
    "category": "gunstore"
  },
  {
    "title": "Zulu Armoury Gun Store",
    "address": "1365 NW 98th Ct, Suite 7, Doral, Florida 33172",
    "phone": "786-580-5136",
    "lat": 25.78652,
    "lng": -80.35484,
    "icon": "/images/icons/gun.png",
    "contentString": "Gun store blurb goes here",
    "category": "gunstore"
  },
  {
    "title": "T-n-T FIrearms & Accessories Gun Store",
    "address": "474372 E State Rd 200, Suite A, Ferdandina, Florida 32034",
    "phone": "904-442-8746",
    "lat": 30.61791,
    "lng": -81.51692,
    "icon": "/images/icons/gun.png",
    "contentString": "Gun store blurb goes here",
    "category": "gunstore"
  },
  {
    "title": "AK-103 Gun Store",
    "address": "3112-1 Palm Ave, Fort Myers, Florida 33901",
    "phone": "239-334-4231",
    "lat": 26.61977,
    "lng": -81.85649,
    "icon": "/images/icons/gun.png",
    "contentString": "Gun store blurb goes here",
    "category": "gunstore"
  },
  {
    "title": "Limited Arms  Gun Store",
    "address": "6187 NW 167th St, Suite H1, Hialeah, Florida 33015",
    "phone": "305-523-9709",
    "lat": 25.88055,
    "lng": -80.29162,
    "icon": "/images/icons/gun.png",
    "contentString": "Gun store blurb goes here",
    "category": "gunstore"
  },
  {
    "title": "Florida Gun Supply Gun Store",
    "address": "118 N Pine Ave, Inverness, Florida 34450",
    "phone": "352-270-3087",
    "lat": 28.83744,
    "lng": -82.33144,
    "icon": "/images/icons/gun.png",
    "contentString": "Gun store blurb goes here",
    "category": "gunstore"
  },
  {
    "title": "Red Ryder Armory Gun Store",
    "address": "6690 Columbia Park Dr, Suite 1, Jacksonville, Florida 32258",
    "phone": "904-535-5980",
    "lat": 30.15773,
    "lng": -81.53806,
    "icon": "/images/icons/gun.png",
    "contentString": "Gun store blurb goes here",
    "category": "gunstore"
  },
  {
    "title": "Jacksonville Beach Gun Store",
    "address": "922 9th St S, Jacksonville Beach, Florida 32250",
    "phone": "904-424-0420",
    "lat": 30.27805,
    "lng": -81.39687,
    "icon": "/images/icons/gun.png",
    "contentString": "Gun store blurb goes here",
    "category": "gunstore"
  },
  {
    "title": "Jupiter Gun Store",
    "address": "9270 W Indiantown Rd, Suite C4, Jupiter, Florida 33478",
    "phone": "561-320-9184",
    "lat": 26.93403,
    "lng": -80.09361,
    "icon": "/images/icons/gun.png",
    "contentString": "Gun store blurb goes here",
    "category": "gunstore"
  },
  {
    "title": "The Armories Gun Store",
    "address": "564 E Osceola Pkwy, Kissimmee, Florida 34744",
    "phone": "407-201-6133",
    "lat": 28.33721,
    "lng": -81.39828,
    "icon": "/images/icons/gun.png",
    "contentString": "Gun store blurb goes here",
    "category": "gunstore"
  },
  {
    "title": "Central Florida Gun and Tactical LLC Gun Store",
    "address": "320 Executive Blvd, Leesburg, Florida 34748",
    "phone": "352-434-4382",
    "lat": 28.80969,
    "lng": -81.93021,
    "icon": "/images/icons/gun.png",
    "contentString": "Gun store blurb goes here",
    "category": "gunstore"
  },
  {
    "title": "Advanced Firearms Gun Store",
    "address": "2175 SR 7, Margate, Florida 33062",
    "phone": "954-968-GUNS",
    "lat": 26.25532,
    "lng": -80.20172,
    "icon": "/images/icons/gun.png",
    "contentString": "Gun store blurb goes here",
    "category": "gunstore"
  },
  {
    "title": "Florida Armory Gun Shop & Police Supply Gun Store",
    "address": "8870 SW 40th St, Miami, Florida 33165",
    "phone": "305-207-1300",
    "lat": 25.73272,
    "lng": -80.33948,
    "icon": "/images/icons/gun.png",
    "contentString": "Gun store blurb goes here",
    "category": "gunstore"
  },
  {
    "title": "Miami Lakes Gun Store",
    "address": "14411 Commerce Way, Suite 420, Miami Lakes, Florida 33016",
    "phone": "305-986-0641",
    "lat": 25.90426,
    "lng": -80.32838,
    "icon": "/images/icons/gun.png",
    "contentString": "Gun store blurb goes here",
    "category": "gunstore"
  },
  {
    "title": "North Miami Beach Gun Store",
    "address": "321 NE 167th St, North Miami Beach, Florida 33162",
    "phone": "305-705-2340",
    "lat": 25.92846,
    "lng": -80.19387,
    "icon": "/images/icons/gun.png",
    "contentString": "Gun store blurb goes here",
    "category": "gunstore"
  },
  {
    "title": "Action Gun & Military Surplus Gun Store",
    "address": "216 Industrial loop S, Suite 101, Orange City, Florida 32273",
    "phone": "904-458-4605",
    "lat": 28.58777,
    "lng": -81.42717,
    "icon": "/images/icons/gun.png",
    "contentString": "Gun store blurb goes here",
    "category": "gunstore"
  },
  {
    "title": "Rieg's Gun Shop & Range Orlando Gun Store",
    "address": "5512 S Orange Blossom Trail, Orlando, Florida 32839",
    "phone": "407-859-5064",
    "lat": 28.44231,
    "lng": -81.403,
    "icon": "/images/icons/gun.png",
    "contentString": "Gun store blurb goes here",
    "category": "gunstore"
  },
  {
    "title": "Florida Gun Exchange Ormond Beach Gun Store",
    "address": "1050 S Nova Rd, Ormond Beach, Florida 32174",
    "phone": "",
    "lat": 29.26617,
    "lng": -81.0784,
    "icon": "/images/icons/gun.png",
    "contentString": "Gun store blurb goes here",
    "category": "gunstore"
  },
  {
    "title": "The Tacticak Store Port St Lucie Gun Store",
    "address": "6672 South US 1 Highway, Port St Lucie, Florida 34952",
    "phone": "772-242-8293",
    "lat": 27.34283,
    "lng": -80.32474,
    "icon": "/images/icons/gun.png",
    "contentString": "Gun store blurb goes here",
    "category": "gunstore"
  },
  {
    "title": "Pro Sporting Goods Gun Store",
    "address": "141 NW 136th Ave, Sunrise, Florida 33325",
    "phone": "954-846-2336",
    "lat": 26.12203,
    "lng": -80.33024,
    "icon": "/images/icons/gun.png",
    "contentString": "Gun store blurb goes here",
    "category": "gunstore"
  },
  {
    "title": "Big Cypress National Park",
    "address": "52105 Tamiami Trail East, Ochopee, Florida 34141",
    "phone": "",
    "lat": 25.85742,
    "lng": -81.03356,
    "icon": "/images/icons/nationalPark.png",
    "contentString": "National Parks blurb goes here",
    "category": "nationalpark"
  },
  {
    "title": "Biscayne National PARK",
    "address": "9700 SW 328th Street, Sir Lancelot Jones Way,  Homestead, FL 33033",
    "phone": "",
    "lat": 25.46412,
    "lng": -80.33607,
    "icon": "/images/icons/nationalPark.png",
    "contentString": "National Parks blurb goes here",
    "category": "nationalpark"
  },
  {
    "title": "Canaveral National Seashore",
    "address": "7611 S. Atlantic Ave., New Smyrna Beach, FL 32169",
    "phone": "",
    "lat": 28.92801,
    "lng": -80.82322,
    "icon": "/images/icons/nationalPark.png",
    "contentString": "National Parks blurb goes here",
    "category": "nationalpark"
  },
  {
    "title": "Castillo de San Marcos NATIONAL Park",
    "address": "11 South Castillo Drive, Saint Augustine, FL  32084",
    "phone": "",
    "lat": 29.89725,
    "lng": -81.31124,
    "icon": "/images/icons/nationalPark.png",
    "contentString": "National Parks blurb goes here",
    "category": "nationalpark"
  },
  {
    "title": "De Soto NATIONAL MEMORIAL",
    "address": "8300 Desoto Memorial Hwy, Bradenton, FL 34209",
    "phone": "",
    "lat": 27.52135,
    "lng": -82.64502,
    "icon": "/images/icons/nationalPark.png",
    "contentString": "National Parks blurb goes here",
    "category": "nationalpark"
  },
  {
    "title": "Dry Tortugas NATIONAL PARK",
    "address": "281 Trumbo Rd, Key West, FL 33040",
    "phone": "",
    "lat": 24.56232,
    "lng": -81.79801,
    "icon": "/images/icons/nationalPark.png",
    "contentString": "National Parks blurb goes here",
    "category": "nationalpark"
  },
  {
    "title": "Everglades NATIONAL PARK",
    "address": "40001 State Road 9336, Homestead, Florida 33034",
    "phone": "",
    "lat": 25.39531,
    "lng": -80.5831,
    "icon": "/images/icons/nationalPark.png",
    "contentString": "National Parks blurb goes here",
    "category": "nationalpark"
  },
  {
    "title": "Fort Caroline NATIONAL MEMORIAL",
    "address": "12713 Fort Caroline Road, Jacksonville, FL 32225",
    "phone": "",
    "lat": 30.38387,
    "lng": -81.49952,
    "icon": "/images/icons/nationalPark.png",
    "contentString": "National Parks blurb goes here",
    "category": "nationalpark"
  },
  {
    "title": "Fort Matanzas NATIONAL Park",
    "address": "8635 A1A South, Saint Augustine, FL 32080",
    "phone": "",
    "lat": 29.86186,
    "lng": -81.28027,
    "icon": "/images/icons/nationalPark.png",
    "contentString": "National Parks blurb goes here",
    "category": "nationalpark"
  },
  {
    "title": "Gulf Islands NATIONAL SEASHORE",
    "address": "1 Gulf National Sea Shore Dr, Okaloosa Island, FL 32548",
    "phone": "",
    "lat": 30.39683,
    "lng": -86.58052,
    "icon": "/images/icons/nationalPark.png",
    "contentString": "National Parks blurb goes here",
    "category": "nationalpark"
  },
  {
    "title": "Timucuan ECOLOGICAL & HISTORIC PRESERVE",
    "address": "12713 Fort Caroline Road, Jacksonville, FL 32225",
    "phone": "",
    "lat": 30.38387,
    "lng": -81.49952,
    "icon": "/images/icons/nationalPark.png",
    "contentString": "National Parks blurb goes here",
    "category": "nationalpark"
  },
  {
    "title": "BASS PRO SHOPS BRANDON Outdoor Store",
    "address": "10501 Palm River Rd, Tampa, FL 33619",
    "phone": "(813) 655-2400",
    "lat": 27.90834,
    "lng": -82.40183,
    "icon": "/images/icons/shopping.png",
    "contentString": "Outdoor stores blurb goes here",
    "category": "outdoorstore"
  },
  {
    "title": "BASS PRO SHOPS ORLANDO Outdoor Store",
    "address": "5156 International Dr, Orlando, FL 32819",
    "phone": "(407) 563-5200",
    "lat": 28.47003,
    "lng": -81.44863,
    "icon": "/images/icons/shopping.png",
    "contentString": "Outdoor stores blurb goes here",
    "category": "outdoorstore"
  },
  {
    "title": "BASS PRO SHOPS PALM BAY Outdoor Store",
    "address": "750 Bass Pro Dr NE, Palm Bay, FL 32905",
    "phone": "(321) 674-3700",
    "lat": 28.03415,
    "lng": -80.65237,
    "icon": "/images/icons/shopping.png",
    "contentString": "Outdoor stores blurb goes here",
    "category": "outdoorstore"
  },
  {
    "title": "BASS PRO SHOPS PORT ST. LUCIE Outdoor Store",
    "address": "2250 Gatlin Blvd, Port St. Lucie, FL 34953",
    "phone": "(772) 785-7600",
    "lat": 27.26218,
    "lng": -80.41929,
    "icon": "/images/icons/shopping.png",
    "contentString": "Outdoor stores blurb goes here",
    "category": "outdoorstore"
  },
  {
    "title": "BASS PRO SHOPS FT. MYERS Outdoor Store",
    "address": "10040 Gulf Center Dr, Ft. Myers, FL 33913",
    "phone": "(239) 461-7800",
    "lat": 26.48794,
    "lng": -81.79118,
    "icon": "/images/icons/shopping.png",
    "contentString": "Outdoor stores blurb goes here",
    "category": "outdoorstore"
  },
  {
    "title": "REI Gainesville Outdoor Store",
    "address": "3650 SW 32nd Ct, Suite 10, Gainesville, FL 32608",
    "phone": "(352) 204-9265",
    "lat": 29.65247,
    "lng": -82.45047,
    "icon": "/images/icons/shopping.png",
    "contentString": "Outdoor stores blurb goes here",
    "category": "outdoorstore"
  },
  {
    "title": "REI Jacksonville Outdoor Store",
    "address": "4862 Big Island Drive, Jacksonville, FL 32246",
    "phone": "(904) 996-1613",
    "lat": 30.25387,
    "lng": -81.529732,
    "icon": "/images/icons/shopping.png",
    "contentString": "Outdoor stores blurb goes here",
    "category": "outdoorstore"
  },
  {
    "title": "REI Winter Park Outdoor Store",
    "address": "430 Orlando Ave, Winter Park, FL 32789",
    "phone": "(407) 647-0731",
    "lat": 28.60112,
    "lng": -81.3647,
    "icon": "/images/icons/shopping.png",
    "contentString": "Outdoor stores blurb goes here",
    "category": "outdoorstore"
  },
  {
    "title": "ACADEMY SPORTS + OUTDOORS Kissimmee Outdoor Store",
    "address": "621 Centerview Boulevard, Kissimmee, FL 34741",
    "phone": "(321) 697-5100",
    "lat": 28.33983,
    "lng": -81.41231,
    "icon": "/images/icons/shopping.png",
    "contentString": "Outdoor stores blurb goes here",
    "category": "outdoorstore"
  },
  {
    "title": "ACADEMY SPORTS + OUTDOORSSoutheast Orlando Outdoor Store",
    "address": "6640 Eagle Watch Drive, Orlando, FL 32822",
    "phone": "(407) 204-3900",
    "lat": 28.46709,
    "lng": -81.3046,
    "icon": "/images/icons/shopping.png",
    "contentString": "Outdoor stores blurb goes here",
    "category": "outdoorstore"
  },
  {
    "title": "ACADEMY SPORTS + OUTDOORSSouthwest Orlando Outdoor Store",
    "address": "3557 Gardens Ridge Way, Orlando, FL 32839",
    "phone": "(407) 481-5001",
    "lat": 28.49563,
    "lng": -81.42314,
    "icon": "/images/icons/shopping.png",
    "contentString": "Outdoor stores blurb goes here",
    "category": "outdoorstore"
  },
  {
    "title": "ACADEMY SPORTS + OUTDOORS West Melbourne Outdoor Store",
    "address": "4285 Norfolk Pkwy, West Melbourne, FL 32904",
    "phone": "(321) 733-5000",
    "lat": 28.03998,
    "lng": -80.66114,
    "icon": "/images/icons/shopping.png",
    "contentString": "Outdoor stores blurb goes here",
    "category": "outdoorstore"
  },
  {
    "title": "ACADEMY SPORTS + OUTDOORS Northeast Orlando Outdoor Store",
    "address": "11955 E Colonial Dr, Orlando, FL 32826",
    "phone": "(407) 243-2000",
    "lat": 28.56447,
    "lng": -81.14262,
    "icon": "/images/icons/shopping.png",
    "contentString": "Outdoor stores blurb goes here",
    "category": "outdoorstore"
  },
  {
    "title": "ACADEMY SPORTS + OUTDOORS Lake Mary Outdoor Store",
    "address": "3641 Lake Emma Road, Lake Mary, FL 32746",
    "phone": "(407) 833-4000",
    "lat": 28.75298,
    "lng": -81.35867,
    "icon": "/images/icons/shopping.png",
    "contentString": "Outdoor stores blurb goes here",
    "category": "outdoorstore"
  },
  {
    "title": "Dick's Sporting Goods Outdoor Store",
    "address": "1100 Alafaya Trail, Orlando, FL 32828",
    "phone": "407-380-90666",
    "lat": 28.48142,
    "lng": -81.16831,
    "icon": "/images/icons/shopping.png",
    "contentString": "Outdoor stores blurb goes here",
    "category": "outdoorstore"
  },
  {
    "title": "Dick's Sporting Goods Outdoor Store",
    "address": "724 Herndon Avenue, Orlando, FL 32803",
    "phone": "321-332-9991",
    "lat": 28.55468,
    "lng": -81.33824,
    "icon": "/images/icons/shopping.png",
    "contentString": "Outdoor stores blurb goes here",
    "category": "outdoorstore"
  },
  {
    "title": "Dick's Sporting Goods Outdoor Store",
    "address": "350 Towne Center Circle, Sanford, FL 32771",
    "phone": "407-324-5800",
    "lat": 28.80362,
    "lng": -81.33762,
    "icon": "/images/icons/shopping.png",
    "contentString": "Outdoor stores blurb goes here",
    "category": "outdoorstore"
  },
  {
    "title": "Dick's Sporting Goods Outdoor Store",
    "address": "4615 Millenia Plaza Way, Orlando, FL 32839",
    "phone": "407-355-0733",
    "lat": 28.49702,
    "lng": -81.42892,
    "icon": "/images/icons/shopping.png",
    "contentString": "Outdoor stores blurb goes here",
    "category": "outdoorstore"
  },
  {
    "title": "Dick's Sporting Goods Outdoor Store",
    "address": "8001 S Orange Blossom Trail, Orlando, FL 32809",
    "phone": "321-445-4286",
    "lat": 28.44696,
    "lng": -81.39624,
    "icon": "/images/icons/shopping.png",
    "contentString": "Outdoor stores blurb goes here",
    "category": "outdoorstore"
  },
  {
    "title": "Dick's Sporting Goods Outdoor Store",
    "address": "1325 Sandy Grove Avenue, Clermont, FL 34711",
    "phone": "352-404-5354",
    "lat": 28.54525,
    "lng": -81.73315,
    "icon": "/images/icons/shopping.png",
    "contentString": "Outdoor stores blurb goes here",
    "category": "outdoorstore"
  },
  {
    "title": "Dick's Sporting Goods Outdoor Store",
    "address": "2500 W. International Speedway Blvd, Daytona Beach, FL 32114",
    "phone": "386-255-5533",
    "lat": 29.17976,
    "lng": -81.08379,
    "icon": "/images/icons/shopping.png",
    "contentString": "Outdoor stores blurb goes here",
    "category": "outdoorstore"
  },
  {
    "title": "Dick's Sporting Goods Outdoor Store",
    "address": "1300 Posner Blvd, Davenport, FL 33837",
    "phone": "863-424-4444",
    "lat": 28.22666,
    "lng": -81.64508,
    "icon": "/images/icons/shopping.png",
    "contentString": "Outdoor stores blurb goes here",
    "category": "outdoorstore"
  },
  {
    "title": "Dick's Sporting Goods Outdoor Store",
    "address": "1700 W. New Haven Avenue, Melbourne, FL 32904",
    "phone": "321-984-4012",
    "lat": 28.08158,
    "lng": -80.64975,
    "icon": "/images/icons/shopping.png",
    "contentString": "Outdoor stores blurb goes here",
    "category": "outdoorstore"
  },
  {
    "title": "Dick's Sporting Goods Outdoor Store",
    "address": "919 Lakeland Park Center Dr., Lakeland, FL 33809",
    "phone": "863-248-1200",
    "lat": 28.08841,
    "lng": -81.96903,
    "icon": "/images/icons/shopping.png",
    "contentString": "Outdoor stores blurb goes here",
    "category": "outdoorstore"
  },
  {
    "title": "Tomoka State Park",
    "address": "2099 N Beach St Ormond Beach, Fl 32174",
    "phone": "",
    "lat": 29.328184,
    "lng": -81.07734,
    "icon": "/images/icons/stateParks.png",
    "contentString": "State Park blurb goes here",
    "category": "statepark"
  },
  {
    "title": "Lake Kissimmee State Park",
    "address": "14248 Camp Mack Rd Lake Wales, Fl 33898",
    "phone": "",
    "lat": 27.972112,
    "lng": -81.379784,
    "icon": "/images/icons/stateParks.png",
    "contentString": "State Park blurb goes here",
    "category": "statepark"
  },
  {
    "title": "Lake Manatee State Park",
    "address": "20007 Sr 64 Bradenton, Fl 34202",
    "phone": "",
    "lat": 27.475207,
    "lng": -82.344167,
    "icon": "/images/icons/stateParks.png",
    "contentString": "State Park blurb goes here",
    "category": "statepark"
  },
  {
    "title": "Ochlockonee River State Park",
    "address": "429 State Park Rd Sopchoppy, Fl 32358 Po Box 5",
    "phone": "",
    "lat": 29.999161,
    "lng": -84.484893,
    "icon": "/images/icons/stateParks.png",
    "contentString": "State Park blurb goes here",
    "category": "statepark"
  },
  {
    "title": "Olustee Battlefield Historic State Park",
    "address": "5815 Battlefield Trail Rd. Olustee, Fl 32087",
    "phone": "",
    "lat": 30.658345,
    "lng": -85.342586,
    "icon": "/images/icons/stateParks.png",
    "contentString": "State Park blurb goes here",
    "category": "statepark"
  },
  {
    "title": "St. Lucie Inlet Preserve State Park",
    "address": "St Lucie Inlet Preserve State Park Martin County, Fl",
    "phone": "",
    "lat": 29.795592,
    "lng": -81.858974,
    "icon": "/images/icons/stateParks.png",
    "contentString": "State Park blurb goes here",
    "category": "statepark"
  },
  {
    "title": "The Barnacle Historic State Park",
    "address": "3485 Main Hwy Coconut Grove, Fl 33133",
    "phone": "",
    "lat": 25.731554,
    "lng": -80.243005,
    "icon": "/images/icons/stateParks.png",
    "contentString": "State Park blurb goes here",
    "category": "statepark"
  },
  {
    "title": "Lake Jackson Mounds Archaeological State Park",
    "address": "3600 Indian Mounds Rd. Tallahassee, Fl 32303",
    "phone": "",
    "lat": 30.501457,
    "lng": -84.313858,
    "icon": "/images/icons/stateParks.png",
    "contentString": "State Park blurb goes here",
    "category": "statepark"
  },
  {
    "title": "Koreshan State Park",
    "address": "3800 Corkscrew Road Estero, Fl 33928",
    "phone": "",
    "lat": 26.431186,
    "lng": -81.814201,
    "icon": "/images/icons/stateParks.png",
    "contentString": "State Park blurb goes here",
    "category": "statepark"
  },
  {
    "title": "Hillsborough River State Park",
    "address": "15402 Us 301 N Thonotosassa, Fl 33592",
    "phone": "",
    "lat": 28.141049,
    "lng": -82.226658,
    "icon": "/images/icons/stateParks.png",
    "contentString": "State Park blurb goes here",
    "category": "statepark"
  },
  {
    "title": "John Gorrie Museum State Park",
    "address": "46 5Th Street Apalachicola, Fl 32320",
    "phone": "",
    "lat": 29.724972,
    "lng": -84.9841,
    "icon": "/images/icons/stateParks.png",
    "contentString": "State Park blurb goes here",
    "category": "statepark"
  },
  {
    "title": "Blue Spring State Park",
    "address": "2100 W French Ave Orange City, Fl 32763",
    "phone": "",
    "lat": 28.952332,
    "lng": -81.334823,
    "icon": "/images/icons/stateParks.png",
    "contentString": "State Park blurb goes here",
    "category": "statepark"
  },
  {
    "title": "Stephen Foster Folk Culture Center State Park",
    "address": "11016 Lillian Saunders Drive White Springs, Fl 32096 Po Box G",
    "phone": "",
    "lat": 30.331735,
    "lng": -82.76548,
    "icon": "/images/icons/stateParks.png",
    "contentString": "State Park blurb goes here",
    "category": "statepark"
  },
  {
    "title": "Rock Springs Run State Reserve",
    "address": "Rock Springs Run State Reserve County Rd. 433 Sorento, Fl",
    "phone": "",
    "lat": 30.353662,
    "lng": -82.780363,
    "icon": "/images/icons/stateParks.png",
    "contentString": "State Park blurb goes here",
    "category": "statepark"
  },
  {
    "title": "Fakahatchee Strand Preserve State Park",
    "address": "137 Coastline Dr Copeland, Fl 34137 Po Box 548",
    "phone": "",
    "lat": 25.951129,
    "lng": -81.360049,
    "icon": "/images/icons/stateParks.png",
    "contentString": "State Park blurb goes here",
    "category": "statepark"
  },
  {
    "title": "Palatka-to-Lake Butler State Trail",
    "address": "6065 Twin Lakes Rd. Keystone Heights, Fl 32656",
    "phone": "",
    "lat": 29.773438,
    "lng": -81.998565,
    "icon": "/images/icons/stateParks.png",
    "contentString": "State Park blurb goes here",
    "category": "statepark"
  },
  {
    "title": "Windley Key Fossil Reef Geological State Park",
    "address": "84900 Overseas Highway Islamorada, Fl 33036 Po Box 1052",
    "phone": "",
    "lat": 24.948981,
    "lng": -80.59653,
    "icon": "/images/icons/stateParks.png",
    "contentString": "State Park blurb goes here",
    "category": "statepark"
  },
  {
    "title": "Bulow Creek State Park",
    "address": "3335 Old Dixie Hwy Ormond Beach, Fl 32174",
    "phone": "",
    "lat": 29.387807,
    "lng": -81.132354,
    "icon": "/images/icons/stateParks.png",
    "contentString": "State Park blurb goes here",
    "category": "statepark"
  },
  {
    "title": "Fanning Springs State Park",
    "address": "11650 Nw 115Th Street Chiefland, Fl 32034",
    "phone": "",
    "lat": 29.496195,
    "lng": -82.964207,
    "icon": "/images/icons/stateParks.png",
    "contentString": "State Park blurb goes here",
    "category": "statepark"
  },
  {
    "title": "Werner-Boyce Salt Springs State Park",
    "address": "9120 Old Post Road Port Richey, Fl 34668",
    "phone": "",
    "lat": 28.290002,
    "lng": -82.724458,
    "icon": "/images/icons/stateParks.png",
    "contentString": "State Park blurb goes here",
    "category": "statepark"
  },
  {
    "title": "Troy Spring State Park",
    "address": "674 Troy Spring Rd. Branford, Fl 32008",
    "phone": "",
    "lat": 30.004856,
    "lng": -82.998853,
    "icon": "/images/icons/stateParks.png",
    "contentString": "State Park blurb goes here",
    "category": "statepark"
  },
  {
    "title": "Three Servicemen Memorial State Park",
    "address": "177 5Th St  Apalachicola, Fl 32320",
    "phone": "",
    "lat": 29.72972,
    "lng": -84.9902,
    "icon": "/images/icons/stateParks.png",
    "contentString": "State Park blurb goes here",
    "category": "statepark"
  },
  {
    "title": "Orman House Historic State Park",
    "address": "177 5Th St  Apalachicola, Fl 32320",
    "phone": "",
    "lat": 29.729719,
    "lng": -84.990196,
    "icon": "/images/icons/stateParks.png",
    "contentString": "State Park blurb goes here",
    "category": "statepark"
  },
  {
    "title": "Withlacoochee State Park Trail",
    "address": "2246 W Magenta Dr. Citurs Springs, Fl 34434",
    "phone": "",
    "lat": 29.02694,
    "lng": -82.47062,
    "icon": "/images/icons/stateParks.png",
    "contentString": "State Park blurb goes here",
    "category": "statepark"
  },
  {
    "title": "Dunns Creek State Park",
    "address": "Dunns Creek State Park Florida 15 Pomona Park, Fl",
    "phone": "",
    "lat": 29.49737,
    "lng": -81.59129,
    "icon": "/images/icons/stateParks.png",
    "contentString": "State Park blurb goes here",
    "category": "statepark"
  },
  {
    "title": "Long Key State Park",
    "address": "67400 Overseas Hwy  Long Key, Fl 33001 Po Box 776",
    "phone": "",
    "lat": 24.82345,
    "lng": -80.81694,
    "icon": "/images/icons/stateParks.png",
    "contentString": "State Park blurb goes here",
    "category": "statepark"
  },
  {
    "title": "T.H. Stone Memorial St. Joseph Peninsula State Park",
    "address": "8899 Cape San Blas Rd Port St Joe, Fl 32456",
    "phone": "",
    "lat": 29.7559,
    "lng": -85.39543,
    "icon": "/images/icons/stateParks.png",
    "contentString": "State Park blurb goes here",
    "category": "statepark"
  },
  {
    "title": "Colt Creek State Park",
    "address": "16000 State Road 471 Lakeland, Fl 33809",
    "phone": "",
    "lat": 28.28164,
    "lng": -82.05547,
    "icon": "/images/icons/stateParks.png",
    "contentString": "State Park blurb goes here",
    "category": "statepark"
  },
  {
    "title": "Eden Gardens State Park",
    "address": "181 Eden Gardens Rd. Santa Rosa Beach, Fl 32450",
    "phone": "",
    "lat": 30.37147,
    "lng": -86.11818,
    "icon": "/images/icons/stateParks.png",
    "contentString": "State Park blurb goes here",
    "category": "statepark"
  },
  {
    "title": "Oscar Scherer State Park",
    "address": "1843 S Tamiami Tr Osprey, Fl 34229",
    "phone": "",
    "lat": 27.18228,
    "lng": -82.4836,
    "icon": "/images/icons/stateParks.png",
    "contentString": "State Park blurb goes here",
    "category": "statepark"
  },
  {
    "title": "Deer Lake State Park",
    "address": "6350 East County Rd. 30-A Santa Rosa Beach, Fl 32459",
    "phone": "",
    "lat": 30.30576,
    "lng": -86.07408,
    "icon": "/images/icons/stateParks.png",
    "contentString": "State Park blurb goes here",
    "category": "statepark"
  },
  {
    "title": "Torreya State Park",
    "address": "2576 Nw Torreya Pk Road Bristol, Fl 32321",
    "phone": "",
    "lat": 30.57162,
    "lng": -84.94584,
    "icon": "/images/icons/stateParks.png",
    "contentString": "State Park blurb goes here",
    "category": "statepark"
  },
  {
    "title": "Collier-Seminole State Park",
    "address": "20200 E Tamiami Trail Naples, Fl 34114",
    "phone": "",
    "lat": 25.99274,
    "lng": -81.59049,
    "icon": "/images/icons/stateParks.png",
    "contentString": "State Park blurb goes here",
    "category": "statepark"
  },
  {
    "title": "North Peninsula State Park",
    "address": "40 Highbridge Rd. Ormond By The Sea, Fl 32176",
    "phone": "",
    "lat": 29.33212,
    "lng": -81.06284,
    "icon": "/images/icons/stateParks.png",
    "contentString": "State Park blurb goes here",
    "category": "statepark"
  },
  {
    "title": "Ichetucknee Springs State Park",
    "address": "12087 Sw Us Hwy 27 Ft White, Fl 32038",
    "phone": "",
    "lat": 29.95149,
    "lng": -82.77828,
    "icon": "/images/icons/stateParks.png",
    "contentString": "State Park blurb goes here",
    "category": "statepark"
  },
  {
    "title": "San Pedro Underwater Archaeological Preserve State Park",
    "address": "77200 Overseas Hwy Islamorada, Fl 33001",
    "phone": "",
    "lat": 24.88028,
    "lng": -80.69456,
    "icon": "/images/icons/stateParks.png",
    "contentString": "State Park blurb goes here",
    "category": "statepark"
  },
  {
    "title": "General James A. Van Fleet State Trail",
    "address": "7683 Berkley Road Polk City, Fl 33968",
    "phone": "",
    "lat": 28.18002,
    "lng": -81.82727,
    "icon": "/images/icons/stateParks.png",
    "contentString": "State Park blurb goes here",
    "category": "statepark"
  },
  {
    "title": "Cedar Key Museum State Park",
    "address": "12231 Sw 166 Ct Cedar Key, Fl 32625",
    "phone": "",
    "lat": 29.15056,
    "lng": -83.04802,
    "icon": "/images/icons/stateParks.png",
    "contentString": "State Park blurb goes here",
    "category": "statepark"
  },
  {
    "title": "De Leon Springs State Park",
    "address": "601 Ponce De Leon Blvd De Leon Springs, Fl 32130",
    "phone": "",
    "lat": 29.13076,
    "lng": -81.3595,
    "icon": "/images/icons/stateParks.png",
    "contentString": "State Park blurb goes here",
    "category": "statepark"
  },
  {
    "title": "Haw Creek Preserve State Park",
    "address": "Haw Creek Preserve State Park Seville, Fl",
    "phone": "",
    "lat": 29.26519,
    "lng": -81.33464,
    "icon": "/images/icons/stateParks.png",
    "contentString": "State Park blurb goes here",
    "category": "statepark"
  },
  {
    "title": "Terra Ceia Preserve State Park",
    "address": "130 Terra Ceia Rd. Terra Ceia, Fl 34606",
    "phone": "",
    "lat": 27.57947,
    "lng": -82.57211,
    "icon": "/images/icons/stateParks.png",
    "contentString": "State Park blurb goes here",
    "category": "statepark"
  },
  {
    "title": "Mike Roess Gold Head Branch State Park",
    "address": "6239 Sr 21 Keystone Heights, Fl 32656",
    "phone": "",
    "lat": 29.85033,
    "lng": -81.95911,
    "icon": "/images/icons/stateParks.png",
    "contentString": "State Park blurb goes here",
    "category": "statepark"
  },
  {
    "title": "Curry Hammock State Park",
    "address": "56200 Overseas Hwy Marathon, Fl 33050",
    "phone": "",
    "lat": 24.74197,
    "lng": -80.9817,
    "icon": "/images/icons/stateParks.png",
    "contentString": "State Park blurb goes here",
    "category": "statepark"
  },
  {
    "title": "Seabranch Preserve State Park",
    "address": "6093 Se Dixie Highway Stuart, Fl 34997",
    "phone": "",
    "lat": 27.13049,
    "lng": -80.16972,
    "icon": "/images/icons/stateParks.png",
    "contentString": "State Park blurb goes here",
    "category": "statepark"
  },
  {
    "title": "Fort Mose Historic State Park",
    "address": "15 Fort Mose Trail St. Augustine, Fl 32084",
    "phone": "",
    "lat": 29.92961,
    "lng": -81.32509,
    "icon": "/images/icons/stateParks.png",
    "contentString": "State Park blurb goes here",
    "category": "statepark"
  },
  {
    "title": "Dr. Von D. Mizell-Eula Johnson State Park",
    "address": "6503 N Ocean Dr Dania Bch, Fl 33004",
    "phone": "",
    "lat": 26.05515,
    "lng": -80.11404,
    "icon": "/images/icons/stateParks.png",
    "contentString": "State Park blurb goes here",
    "category": "statepark"
  },
  {
    "title": "Camp Helen State Park",
    "address": "23937 Panama City Beach Parkway Panama City Beach, Fl 32413",
    "phone": "",
    "lat": 30.27327,
    "lng": -85.99227,
    "icon": "/images/icons/stateParks.png",
    "contentString": "State Park blurb goes here",
    "category": "statepark"
  },
  {
    "title": "St. Sebastian River Preserve State Park",
    "address": "1000 Buffer Preserve Drive Fellsmere, Fl 32948",
    "phone": "",
    "lat": 27.83092,
    "lng": -80.60128,
    "icon": "/images/icons/stateParks.png",
    "contentString": "State Park blurb goes here",
    "category": "statepark"
  },
  {
    "title": "Nature Coast State Trail",
    "address": "18020 Nw Hwy 19 Fanning Springs, Florida 32693",
    "phone": "",
    "lat": 29.5911,
    "lng": -82.93552,
    "icon": "/images/icons/stateParks.png",
    "contentString": "State Park blurb goes here",
    "category": "statepark"
  },
  {
    "title": "Cockroach Bay Preserve State Park",
    "address": "End Of Cockroach Bay Rd. Ruskin, Fl 33570",
    "phone": "",
    "lat": 27.6874,
    "lng": -82.49516,
    "icon": "/images/icons/stateParks.png",
    "contentString": "State Park blurb goes here",
    "category": "statepark"
  },
  {
    "title": "Ybor City Museum State Park",
    "address": "1818 E. 9Th Avenue Tampa, Fl 33605",
    "phone": "",
    "lat": 27.96191,
    "lng": -82.43832,
    "icon": "/images/icons/stateParks.png",
    "contentString": "State Park blurb goes here",
    "category": "statepark"
  },
  {
    "title": "Lower Wekiva River Preserve State Park",
    "address": "8300 W. State Rd. 46 Sanford, Fl 32712",
    "phone": "",
    "lat": 28.81499,
    "lng": -81.40517,
    "icon": "/images/icons/stateParks.png",
    "contentString": "State Park blurb goes here",
    "category": "statepark"
  },
  {
    "title": "Lake Griffin State Park",
    "address": "3089 Us Highway 441/27 Fruitland Park, Fl 34731",
    "phone": "",
    "lat": 28.85706,
    "lng": -81.90048,
    "icon": "/images/icons/stateParks.png",
    "contentString": "State Park blurb goes here",
    "category": "statepark"
  },
  {
    "title": "Manatee Springs State Park",
    "address": "11650 Nw 115 St Chiefland, Fl 32626",
    "phone": "",
    "lat": 29.48783,
    "lng": -82.97703,
    "icon": "/images/icons/stateParks.png",
    "contentString": "State Park blurb goes here",
    "category": "statepark"
  },
  {
    "title": "Mound Key Archaeological State Park",
    "address": "Mound Key Archaeological State Park Estero, Fl 33928",
    "phone": "",
    "lat": 26.43139,
    "lng": -81.79006,
    "icon": "/images/icons/stateParks.png",
    "contentString": "State Park blurb goes here",
    "category": "statepark"
  },
  {
    "title": "Myakka River State Park",
    "address": "13208 State Rd 72 Sarasota, Fl 34241",
    "phone": "",
    "lat": 27.2408,
    "lng": -82.31592,
    "icon": "/images/icons/stateParks.png",
    "contentString": "State Park blurb goes here",
    "category": "statepark"
  },
  {
    "title": "Henderson Beach State Park",
    "address": "17000 Emerald Coast Pkwy Destin, Fl 32541",
    "phone": "",
    "lat": 30.38489,
    "lng": -86.44238,
    "icon": "/images/icons/stateParks.png",
    "contentString": "State Park blurb goes here",
    "category": "statepark"
  },
  {
    "title": "Dudley Farm Historic State Park",
    "address": "18730 W. Newberry Rd. Newberry, Fl 32669",
    "phone": "",
    "lat": 29.65784,
    "lng": -82.5395,
    "icon": "/images/icons/stateParks.png",
    "contentString": "State Park blurb goes here",
    "category": "statepark"
  },
  {
    "title": "Lignumvitae Key Botanical State Park",
    "address": "77200 Overseas Hwy Islamorada, Fl 33001",
    "phone": "",
    "lat": 24.88028,
    "lng": -80.69456,
    "icon": "/images/icons/stateParks.png",
    "contentString": "State Park blurb goes here",
    "category": "statepark"
  },
  {
    "title": "Gasparilla Island State Park",
    "address": "880 Belcher Rd Boca Grande, Fl 33921 Po Box 1150",
    "phone": "",
    "lat": 26.71954,
    "lng": -82.26011,
    "icon": "/images/icons/stateParks.png",
    "contentString": "State Park blurb goes here",
    "category": "statepark"
  },
  {
    "title": "Don Pedro Island State Park",
    "address": "8450 Placida Rd. Cape Haze, Fl 33946",
    "phone": "",
    "lat": 26.85588,
    "lng": -82.30268,
    "icon": "/images/icons/stateParks.png",
    "contentString": "State Park blurb goes here",
    "category": "statepark"
  },
  {
    "title": "Edward Ball Wakulla Springs State Park",
    "address": "465 Wakulla Park Dr Wakulla Springs, Fl 32327",
    "phone": "",
    "lat": 30.22869,
    "lng": -84.30266,
    "icon": "/images/icons/stateParks.png",
    "contentString": "State Park blurb goes here",
    "category": "statepark"
  },
  {
    "title": "Wes Skiles Peacock Springs State Park",
    "address": "18181 185Th Rd. Live Oak, Fl 32060",
    "phone": "",
    "lat": 30.11113,
    "lng": -83.12551,
    "icon": "/images/icons/stateParks.png",
    "contentString": "State Park blurb goes here",
    "category": "statepark"
  },
  {
    "title": "Ellie Schiller Homosassa Springs Wildlife State Park",
    "address": "4150 S Suncoast Blvd Homosassa, Fl 34446",
    "phone": "",
    "lat": 28.80074,
    "lng": -82.57812,
    "icon": "/images/icons/stateParks.png",
    "contentString": "State Park blurb goes here",
    "category": "statepark"
  },
  {
    "title": "Fort George Island Cultural State Park",
    "address": "11241 Fort George Rd. Jacksonville, Fl 32226",
    "phone": "",
    "lat": 30.43527,
    "lng": -81.43038,
    "icon": "/images/icons/stateParks.png",
    "contentString": "State Park blurb goes here",
    "category": "statepark"
  },
  {
    "title": "Lake June-in-Winter Scrub Preserve State Park",
    "address": "Daffodil Rd. Lake Placid, Fl 33852",
    "phone": "",
    "lat": 27.30466,
    "lng": -81.34358,
    "icon": "/images/icons/stateParks.png",
    "contentString": "State Park blurb goes here",
    "category": "statepark"
  },
  {
    "title": "Okeechobee Battlefield Historic State Park",
    "address": "3500 Se 38Th Ave. Okeechobee, Fl 34974",
    "phone": "",
    "lat": 27.21217,
    "lng": -80.78906,
    "icon": "/images/icons/stateParks.png",
    "contentString": "State Park blurb goes here",
    "category": "statepark"
  },
  {
    "title": "Kissimmee Prairie Preserve State Park",
    "address": "33104 Nw 192Nd Ave Okeechobee, Fl 34972",
    "phone": "",
    "lat": 27.54359,
    "lng": -81.0227,
    "icon": "/images/icons/stateParks.png",
    "contentString": "State Park blurb goes here",
    "category": "statepark"
  },
  {
    "title": "Letchworth-Love Mounds Archaeological State Park",
    "address": "4500 Sunray Rd. South Tallahassee, Fl 32309",
    "phone": "",
    "lat": 30.52185,
    "lng": -83.99065,
    "icon": "/images/icons/stateParks.png",
    "contentString": "State Park blurb goes here",
    "category": "statepark"
  },
  {
    "title": "Hugh Taylor Birch State Park",
    "address": "3109 E Sunrise Blvd Ft Lauderdale, Fl 33304",
    "phone": "",
    "lat": 26.14086,
    "lng": -80.10318,
    "icon": "/images/icons/stateParks.png",
    "contentString": "State Park blurb goes here",
    "category": "statepark"
  },
  {
    "title": "Lafayette Blue Springs State Park",
    "address": "799 Nw Blue Spring Rd May, Fl 32066",
    "phone": "",
    "lat": 30.10794,
    "lng": -83.23645,
    "icon": "/images/icons/stateParks.png",
    "contentString": "State Park blurb goes here",
    "category": "statepark"
  },
  {
    "title": "Tarkiln Bayou Preserve State Park",
    "address": "2401 Bauer Rd. Pensacola, Fl 32507",
    "phone": "",
    "lat": 30.37312,
    "lng": -87.4023,
    "icon": "/images/icons/stateParks.png",
    "contentString": "State Park blurb goes here",
    "category": "statepark"
  },
  {
    "title": "Ravine Gardens State Park",
    "address": "1600 Twigg St. Palatka, Fl 32177",
    "phone": "",
    "lat": 30.37312,
    "lng": -87.4023,
    "icon": "/images/icons/stateParks.png",
    "contentString": "State Park blurb goes here",
    "category": "statepark"
  },
  {
    "title": "Yellow River Marsh Preserve State Park",
    "address": "7720 Deaton Bridge Rd Holt, Fl 32564",
    "phone": "",
    "lat": 30.7097,
    "lng": -86.87586,
    "icon": "/images/icons/stateParks.png",
    "contentString": "State Park blurb goes here",
    "category": "statepark"
  },
  {
    "title": "Blackwater River State Park",
    "address": "7720 Deaton Bridge Rd Holt, Fl 32564",
    "phone": "",
    "lat": 30.7097,
    "lng": -86.87586,
    "icon": "/images/icons/stateParks.png",
    "contentString": "State Park blurb goes here",
    "category": "statepark"
  },
  {
    "title": "Bulow Plantation Ruins Historic State Park",
    "address": "3501 Old Kings Rd. Flagler Beach, Fl 32136",
    "phone": "",
    "lat": 29.43021,
    "lng": -81.15348,
    "icon": "/images/icons/stateParks.png",
    "contentString": "State Park blurb goes here",
    "category": "statepark"
  },
  {
    "title": "Indian Key Historic State Park",
    "address": "Indian Key, Fl",
    "phone": "",
    "lat": 27.86316,
    "lng": -82.84096,
    "icon": "/images/icons/stateParks.png",
    "contentString": "State Park blurb goes here",
    "category": "statepark"
  },
  {
    "title": "Constitution Convention Museum State Park",
    "address": "200 Allen Memorial Way Port St Joe, Fl 32456",
    "phone": "",
    "lat": 29.7935,
    "lng": -85.29679,
    "icon": "/images/icons/stateParks.png",
    "contentString": "State Park blurb goes here",
    "category": "statepark"
  },
  {
    "title": "Oleta River State Park",
    "address": "3400 Ne 163Rd St N Miami, Fl 33160",
    "phone": "",
    "lat": 25.92852,
    "lng": -80.1349,
    "icon": "/images/icons/stateParks.png",
    "contentString": "State Park blurb goes here",
    "category": "statepark"
  },
  {
    "title": "Pumpkin Hill Creek Preserve State Park",
    "address": "13802 Pumpkin Hill Road Jacksonville, Fl 32226",
    "phone": "",
    "lat": 30.48065,
    "lng": -81.48787,
    "icon": "/images/icons/stateParks.png",
    "contentString": "State Park blurb goes here",
    "category": "statepark"
  },
  {
    "title": "Crystal River Archaeological State Park",
    "address": "3400 N Museum Pt Crystal River, Fl 34428",
    "phone": "",
    "lat": 28.90936,
    "lng": -82.62795,
    "icon": "/images/icons/stateParks.png",
    "contentString": "State Park blurb goes here",
    "category": "statepark"
  },
  {
    "title": "Dade Battlefield Historic State Park",
    "address": "7200 Cr 603 - S Battlefield Drive Bushnell, Fl 33513",
    "phone": "",
    "lat": 28.65306,
    "lng": -82.12727,
    "icon": "/images/icons/stateParks.png",
    "contentString": "State Park blurb goes here",
    "category": "statepark"
  },
  {
    "title": "Falling Waters State Park",
    "address": "1130 State Park Rd Chipley, Fl 32428",
    "phone": "",
    "lat": 30.73087,
    "lng": -85.52882,
    "icon": "/images/icons/stateParks.png",
    "contentString": "State Park blurb goes here",
    "category": "statepark"
  },
  {
    "title": "Faver-Dykes State Park",
    "address": "1000 Faver-Dykes Rd. St. Augustine, Fl 32181",
    "phone": "",
    "lat": 29.66914,
    "lng": -81.26672,
    "icon": "/images/icons/stateParks.png",
    "contentString": "State Park blurb goes here",
    "category": "statepark"
  },
  {
    "title": "Fernandina Plaza Historic State Park",
    "address": "Estrada Street Fernandina Beach, Fl 32034",
    "phone": "",
    "lat": 30.68897,
    "lng": -81.45617,
    "icon": "/images/icons/stateParks.png",
    "contentString": "State Park blurb goes here",
    "category": "statepark"
  },
  {
    "title": "Gamble Rogers Memorial State Park at Flagler Beach",
    "address": "3100 South A1A Flagler Beach, Fl 32136",
    "phone": "",
    "lat": 29.44157,
    "lng": -81.10967,
    "icon": "/images/icons/stateParks.png",
    "contentString": "State Park blurb goes here",
    "category": "statepark"
  },
  {
    "title": "Forest Capital Museum State Park",
    "address": "204 Forest Park Dr Perry, Fl 32348",
    "phone": "",
    "lat": 30.07997,
    "lng": -83.56815,
    "icon": "/images/icons/stateParks.png",
    "contentString": "State Park blurb goes here",
    "category": "statepark"
  },
  {
    "title": "Ponce de Leon Springs State Park",
    "address": "2860 Ponce De Leon Springs Rd Ponce De Leon, Fl 32455",
    "phone": "",
    "lat": 30.72288,
    "lng": -85.93033,
    "icon": "/images/icons/stateParks.png",
    "contentString": "State Park blurb goes here",
    "category": "statepark"
  },
  {
    "title": "Fort Cooper State Park",
    "address": "3100  S Old Floral City Rd Inverness, Fl 34450",
    "phone": "",
    "lat": 28.81669,
    "lng": -82.30279,
    "icon": "/images/icons/stateParks.png",
    "contentString": "State Park blurb goes here",
    "category": "statepark"
  },
  {
    "title": "Stump Pass Beach State Park",
    "address": "South End Of Manasota Key 900 Gulf Blvd. Englewood, Fl 34233",
    "phone": "",
    "lat": 26.90639,
    "lng": -82.34978,
    "icon": "/images/icons/stateParks.png",
    "contentString": "State Park blurb goes here",
    "category": "statepark"
  },
  {
    "title": "Indian River Lagoon Preserve State Park",
    "address": "Old Florida Trail Melbourne Beach, Fl 32951",
    "phone": "",
    "lat": 27.93688,
    "lng": -80.49816,
    "icon": "/images/icons/stateParks.png",
    "contentString": "State Park blurb goes here",
    "category": "statepark"
  },
  {
    "title": "Judah P. Benjamin Confederate Memorial at Gamble Plantation Historic State Park",
    "address": "3708 Patten Avenue Ellenton, Fl 34222",
    "phone": "",
    "lat": 27.5223,
    "lng": -82.52572,
    "icon": "/images/icons/stateParks.png",
    "contentString": "State Park blurb goes here",
    "category": "statepark"
  },
  {
    "title": "Jonathan Dickinson State Park",
    "address": "16450 Se Federal Hwy Hobe Sound, Fl 33455",
    "phone": "",
    "lat": 26.99561,
    "lng": -80.14494,
    "icon": "/images/icons/stateParks.png",
    "contentString": "State Park blurb goes here",
    "category": "statepark"
  },
  {
    "title": "Devil's Millhopper Geological State Park",
    "address": "4732 Millhopper Rd. Gainesville, Fl 32653",
    "phone": "",
    "lat": 29.70796,
    "lng": -82.39639,
    "icon": "/images/icons/stateParks.png",
    "contentString": "State Park blurb goes here",
    "category": "statepark"
  },
  {
    "title": "Highlands Hammock State Park",
    "address": "5931 Hammock Rd Sebring, Fl 33872",
    "phone": "",
    "lat": 27.47191,
    "lng": -81.53934,
    "icon": "/images/icons/stateParks.png",
    "contentString": "State Park blurb goes here",
    "category": "statepark"
  },
  {
    "title": "Little Manatee River State Park",
    "address": "215 Lightfoot Rd Wimauma, Fl 33598",
    "phone": "",
    "lat": 27.66311,
    "lng": -82.37375,
    "icon": "/images/icons/stateParks.png",
    "contentString": "State Park blurb goes here",
    "category": "statepark"
  },
  {
    "title": "Hontoon Island State Park",
    "address": "2309 River Ridge Rd Deland, Fl 32720",
    "phone": "",
    "lat": 28.97418,
    "lng": -81.35708,
    "icon": "/images/icons/stateParks.png",
    "contentString": "State Park blurb goes here",
    "category": "statepark"
  },
  {
    "title": "River Rise Preserve State Park",
    "address": "373 Southwest Us Hwy 27 High Springs, Fl 32643",
    "phone": "",
    "lat": 29.95638,
    "lng": -82.92561,
    "icon": "/images/icons/stateParks.png",
    "contentString": "State Park blurb goes here",
    "category": "statepark"
  },
  {
    "title": "Paynes Creek Historic State Park",
    "address": "888 Lake Branch Rd Bowling Green, Fl 33834",
    "phone": "",
    "lat": 27.62339,
    "lng": -81.80906,
    "icon": "/images/icons/stateParks.png",
    "contentString": "State Park blurb goes here",
    "category": "statepark"
  },
  {
    "title": "Big Lagoon State Park",
    "address": "12301 Gulf Beach Hwy Pensacola, Fl 32507",
    "phone": "",
    "lat": 30.31078,
    "lng": -87.41671,
    "icon": "/images/icons/stateParks.png",
    "contentString": "State Park blurb goes here",
    "category": "statepark"
  },
  {
    "title": "Avalon State Park",
    "address": "5400 A1A Fort Pierce, Fl 34949",
    "phone": "",
    "lat": 26.20264,
    "lng": -80.09435,
    "icon": "/images/icons/stateParks.png",
    "contentString": "State Park blurb goes here",
    "category": "statepark"
  },
  {
    "title": "Allen David Broussard Catfish Creek Preserve State Park",
    "address": "4335 Firetower Rd. Haines City, Fl 33844",
    "phone": "",
    "lat": 27.98404,
    "lng": -81.49691,
    "icon": "/images/icons/stateParks.png",
    "contentString": "State Park blurb goes here",
    "category": "statepark"
  },
  {
    "title": "Bald Point State Park",
    "address": "146 Box Cut Rd Alligator Point, Fl 32346",
    "phone": "",
    "lat": 29.90876,
    "lng": -84.34321,
    "icon": "/images/icons/stateParks.png",
    "contentString": "State Park blurb goes here",
    "category": "statepark"
  },
  {
    "title": "Lovers Key State Park",
    "address": "8700 Estero Blvd Ft Myers Beach, Fl 33931",
    "phone": "",
    "lat": 26.43695,
    "lng": -81.92165,
    "icon": "/images/icons/stateParks.png",
    "contentString": "State Park blurb goes here",
    "category": "statepark"
  },
  {
    "title": "Fort Pierce Inlet State Park",
    "address": "905 Shorewinds Dr Ft Pierce, Fl 34949",
    "phone": "",
    "lat": 27.48536,
    "lng": -80.30348,
    "icon": "/images/icons/stateParks.png",
    "contentString": "State Park blurb goes here",
    "category": "statepark"
  },
  {
    "title": "Madison Blue Spring State Park",
    "address": "8300 Ne State Rd. 6 Lee, Fl 32059",
    "phone": "",
    "lat": 30.47944,
    "lng": -83.24591,
    "icon": "/images/icons/stateParks.png",
    "contentString": "State Park blurb goes here",
    "category": "statepark"
  },
  {
    "title": "Wingate Creek State Park",
    "address": "20007 Sr 64 Bradenton, Fl 34202",
    "phone": "",
    "lat": 27.477,
    "lng": -82.34721,
    "icon": "/images/icons/stateParks.png",
    "contentString": "State Park blurb goes here",
    "category": "statepark"
  },
  {
    "title": "South Fork State Park",
    "address": "20007 Sr 64 Bradenton, Fl 34202",
    "phone": "",
    "lat": 27.477,
    "lng": -82.34721,
    "icon": "/images/icons/stateParks.png",
    "contentString": "State Park blurb goes here",
    "category": "statepark"
  },
  {
    "title": "Atlantic Ridge Preserve State Park",
    "address": "8120 Se Paulson Ave Stuart, Fl 34997",
    "phone": "",
    "lat": 27.10309,
    "lng": -80.24136,
    "icon": "/images/icons/stateParks.png",
    "contentString": "State Park blurb goes here",
    "category": "statepark"
  },
  {
    "title": "Perdido Key State Park",
    "address": "15301 Perdido Key Dr. Pensacola, Fl 32507",
    "phone": "",
    "lat": 30.29289,
    "lng": -87.46383,
    "icon": "/images/icons/stateParks.png",
    "contentString": "State Park blurb goes here",
    "category": "statepark"
  },
  {
    "title": "Paynes Prairie Preserve State Park",
    "address": "100 Savannah Blvd Micanopy, Fl 32667",
    "phone": "",
    "lat": 29.51983,
    "lng": -82.29496,
    "icon": "/images/icons/stateParks.png",
    "contentString": "State Park blurb goes here",
    "category": "statepark"
  },
  {
    "title": "Gainesville-to-Hawthorne State Trail",
    "address": "3400 Se 15 Street Gainesville,Fl 32641",
    "phone": "",
    "lat": 29.62085,
    "lng": -82.30647,
    "icon": "/images/icons/stateParks.png",
    "contentString": "State Park blurb goes here",
    "category": "statepark"
  },
  {
    "title": "Wekiwa Springs State Park",
    "address": "1800 Wekiwa Cir Apopka, Fl 32712",
    "phone": "",
    "lat": 28.71127,
    "lng": -81.46227,
    "icon": "/images/icons/stateParks.png",
    "contentString": "State Park blurb goes here",
    "category": "statepark"
  },
  {
    "title": "John D. MacArthur Beach State Park",
    "address": "10900 Jack Nichlaus Drive North Palm Beach, Fl 33408",
    "phone": "",
    "lat": 26.82641,
    "lng": -80.04343,
    "icon": "/images/icons/stateParks.png",
    "contentString": "State Park blurb goes here",
    "category": "statepark"
  },
  {
    "title": "Suwannee River Wilderness Trail",
    "address": "4298 Nw County Road 292 Mayo, Fl 32066",
    "phone": "",
    "lat": 30.15297,
    "lng": -83.24481,
    "icon": "/images/icons/stateParks.png",
    "contentString": "State Park blurb goes here",
    "category": "statepark"
  },
  {
    "title": "Charlotte Harbor Preserve State Park",
    "address": "12301 Burnt Store Rd. Punta Gorda, Fl 33955",
    "phone": "",
    "lat": 26.8513,
    "lng": -82.02213,
    "icon": "/images/icons/stateParks.png",
    "contentString": "State Park blurb goes here",
    "category": "statepark"
  },
  {
    "title": "Econfina River State Park",
    "address": "4741 Econfina River Rd. Lamont, Fl 32336",
    "phone": "",
    "lat": 30.05999,
    "lng": -83.90644,
    "icon": "/images/icons/stateParks.png",
    "contentString": "State Park blurb goes here",
    "category": "statepark"
  },
  {
    "title": "Fort Clinch State Park",
    "address": "2601 Atlantic Ave Fernandina Beach, Fl 32034",
    "phone": "",
    "lat": 30.66807,
    "lng": -81.43521,
    "icon": "/images/icons/stateParks.png",
    "contentString": "State Park blurb goes here",
    "category": "statepark"
  },
  {
    "title": "Lake Louisa State Park",
    "address": "7305 Us Hwy 27 Clermont, Fl 34714",
    "phone": "",
    "lat": 28.45489,
    "lng": -81.72709,
    "icon": "/images/icons/stateParks.png",
    "contentString": "State Park blurb goes here",
    "category": "statepark"
  },
  {
    "title": "Suwannee River State Park",
    "address": "3631 201St Path Live Oak, Fl 32060",
    "phone": "",
    "lat": 30.38068,
    "lng": -83.16608,
    "icon": "/images/icons/stateParks.png",
    "contentString": "State Park blurb goes here",
    "category": "statepark"
  },
  {
    "title": "Yulee Sugar Mill Ruins Historic State Park",
    "address": "10465 W Yulee Dr. Homosassa, Fl 34448",
    "phone": "",
    "lat": 28.78483,
    "lng": -82.6075,
    "icon": "/images/icons/stateParks.png",
    "contentString": "State Park blurb goes here",
    "category": "statepark"
  },
  {
    "title": "Yellow Bluff Fort Historic State Park",
    "address": "9400 New Berlin Rd. Jacksonville, Fl 32226",
    "phone": "",
    "lat": 30.40132,
    "lng": -81.56046,
    "icon": "/images/icons/stateParks.png",
    "contentString": "State Park blurb goes here",
    "category": "statepark"
  },
  {
    "title": "Washington Oaks Gardens State Park",
    "address": "6400 N Oceanshore Blvd Palm Coast, Fl 32137",
    "phone": "",
    "lat": 29.63312,
    "lng": -81.20748,
    "icon": "/images/icons/stateParks.png",
    "contentString": "State Park blurb goes here",
    "category": "statepark"
  },
  {
    "title": "San Marcos de Apalache Historic State Park",
    "address": "148 Old Fort Rd. St. Marks, Fl 32355",
    "phone": "",
    "lat": 30.15202,
    "lng": -84.21078,
    "icon": "/images/icons/stateParks.png",
    "contentString": "State Park blurb goes here",
    "category": "statepark"
  },
  {
    "title": "Dr. Julian G. Bruce St. George Island State Park",
    "address": "1900 E Gulf Beach Dr St George Island, Fl 32328",
    "phone": "",
    "lat": 29.7494,
    "lng": -84.71024,
    "icon": "/images/icons/stateParks.png",
    "contentString": "State Park blurb goes here",
    "category": "statepark"
  },
  {
    "title": "Crystal River Preserve State Park",
    "address": "3266 N Sailboat Avenue Crystal River, Fl 34428",
    "phone": "",
    "lat": 28.90944,
    "lng": -82.63595,
    "icon": "/images/icons/stateParks.png",
    "contentString": "State Park blurb goes here",
    "category": "statepark"
  },
  {
    "title": "Ichetucknee Trace",
    "address": "12087 Sw Us Hwy 27 Ft White, Fl 32038",
    "phone": "",
    "lat": 29.95149,
    "lng": -82.77828,
    "icon": "/images/icons/stateParks.png",
    "contentString": "State Park blurb goes here",
    "category": "statepark"
  },
  {
    "title": "St. Marks River Preserve State Park",
    "address": "11950 Tram Rd. Tallahassee, Fl 32311",
    "phone": "",
    "lat": 30.37277,
    "lng": -84.08259,
    "icon": "/images/icons/stateParks.png",
    "contentString": "State Park blurb goes here",
    "category": "statepark"
  },
  {
    "title": "Fred Gannon Rocky Bayou State Park",
    "address": "4281 State Rd. 20 Niceville, Fl 32578",
    "phone": "",
    "lat": 30.49793,
    "lng": -86.43175,
    "icon": "/images/icons/stateParks.png",
    "contentString": "State Park blurb goes here",
    "category": "statepark"
  },
  {
    "title": "George Crady Bridge Fishing Pier State Park",
    "address": "9549 1St Coast Hwy, Fernandina Beach, Fl 32034",
    "phone": "",
    "lat": 30.55716,
    "lng": -81.44995,
    "icon": "/images/icons/stateParks.png",
    "contentString": "State Park blurb goes here",
    "category": "statepark"
  },
  {
    "title": "Bill Baggs Cape Florida State Park",
    "address": "1200 S Crandon Blvd Key Biscayne, Fl 33149",
    "phone": "",
    "lat": 25.67534,
    "lng": -80.16145,
    "icon": "/images/icons/stateParks.png",
    "contentString": "State Park blurb goes here",
    "category": "statepark"
  },
  {
    "title": "Madira Bickel Mound State Archaeological Site",
    "address": "955 Bayshore Dr. Terra Ceia, Fl 34250",
    "phone": "",
    "lat": 27.56499,
    "lng": -82.59317,
    "icon": "/images/icons/stateParks.png",
    "contentString": "State Park blurb goes here",
    "category": "statepark"
  },
  {
    "title": "Tallahassee-St. Marks Historic Railroad State Trail",
    "address": "1358 Old Woodville Rd. Crawfordville, Fl 32327",
    "phone": "",
    "lat": 30.24493,
    "lng": -84.23476,
    "icon": "/images/icons/stateParks.png",
    "contentString": "State Park blurb goes here",
    "category": "statepark"
  },
  {
    "title": "Alfred B. Maclay Gardens State Park",
    "address": "3540 Thomasville Rd Tallahassee, Fl 32309",
    "phone": "",
    "lat": 30.51414,
    "lng": -84.24749,
    "icon": "/images/icons/stateParks.png",
    "contentString": "State Park blurb goes here",
    "category": "statepark"
  },
  {
    "title": "Anastasia State Park",
    "address": "300 Anastasia Park Rd. St Augustine, Fl 32080",
    "phone": "",
    "lat": 29.87727,
    "lng": -81.28026,
    "icon": "/images/icons/stateParks.png",
    "contentString": "State Park blurb goes here",
    "category": "statepark"
  },
  {
    "title": "Big Shoals State Park",
    "address": "11330 Southeast County Rd 135 White Springs, Fl 32096",
    "phone": "",
    "lat": 30.3453,
    "lng": -82.73516,
    "icon": "/images/icons/stateParks.png",
    "contentString": "State Park blurb goes here",
    "category": "statepark"
  },
  {
    "title": "Anclote Key Preserve State Park",
    "address": "Anclote Key Tarpon Springs, Fl 34689",
    "phone": "",
    "lat": 28.19029,
    "lng": -82.75271,
    "icon": "/images/icons/stateParks.png",
    "contentString": "State Park blurb goes here",
    "category": "statepark"
  },
  {
    "title": "Addison Blockhouse Historic State Park",
    "address": "2099 N Beach Street Ormond Beach, Fl 32174",
    "phone": "",
    "lat": 29.341021,
    "lng": -81.084793,
    "icon": "/images/icons/stateParks.png",
    "contentString": "State Park blurb goes here",
    "category": "statepark"
  },
  {
    "title": "Fort Zachary Taylor Historic State Park",
    "address": "601 Howard England Way Key West, Fl 33040",
    "phone": "",
    "lat": 24.54684,
    "lng": -81.80824,
    "icon": "/images/icons/stateParks.png",
    "contentString": "State Park blurb goes here",
    "category": "statepark"
  },
  {
    "title": "Florida Keys Overseas Heritage Trail",
    "address": "3 La Croix Court Key Largo, Fl 33037",
    "phone": "",
    "lat": 25.19447,
    "lng": -80.3526,
    "icon": "/images/icons/stateParks.png",
    "contentString": "State Park blurb goes here",
    "category": "statepark"
  },
  {
    "title": "Alafia River State Park",
    "address": "14326 South County Rd 39 Lithia, Fl 33547",
    "phone": "",
    "lat": 27.784769,
    "lng": -82.14135,
    "icon": "/images/icons/stateParks.png",
    "contentString": "State Park blurb goes here",
    "category": "statepark"
  },
  {
    "title": "Florida Caverns State Park",
    "address": "3345 Caverns Rd Marianna, Fl 32446",
    "phone": "",
    "lat": 30.80837,
    "lng": -85.21238,
    "icon": "/images/icons/stateParks.png",
    "contentString": "State Park blurb goes here",
    "category": "statepark"
  },
  {
    "title": "Ruth B. Kirby Gilchrist Blue Springs State Park",
    "address": "7450 Ne 60Th St. High Springs, Fl 32643",
    "phone": "",
    "lat": 29.82949,
    "lng": -82.68394,
    "icon": "/images/icons/stateParks.png",
    "contentString": "State Park blurb goes here",
    "category": "statepark"
  },
  {
    "title": "Bahia Honda State Park",
    "address": "36850 Overseas Hwy Big Pine Key, Fl 33043",
    "phone": "",
    "lat": 24.65947,
    "lng": -81.27507,
    "icon": "/images/icons/stateParks.png",
    "contentString": "State Park blurb goes here",
    "category": "statepark"
  },
  {
    "title": "Grayton Beach State Park",
    "address": "357 Main Park Rd Santa Rosa Beach, Fl 32459",
    "phone": "",
    "lat": 30.3258,
    "lng": -86.15467,
    "icon": "/images/icons/stateParks.png",
    "contentString": "State Park blurb goes here",
    "category": "statepark"
  },
  {
    "title": "Sebastian Inlet State Park",
    "address": "9700 S A1A Melbourne Bch, Fl 32951",
    "phone": "",
    "lat": 27.86319,
    "lng": -80.45152,
    "icon": "/images/icons/stateParks.png",
    "contentString": "State Park blurb goes here",
    "category": "statepark"
  },
  {
    "title": "Natural Bridge Battlefield Historic State Park",
    "address": "7502 Natural Bridge Rd. Tallahassee, 32309",
    "phone": "",
    "lat": 30.28147,
    "lng": -84.15041,
    "icon": "/images/icons/stateParks.png",
    "contentString": "State Park blurb goes here",
    "category": "statepark"
  },
  {
    "title": "Three Rivers State Park",
    "address": "7908 Three Rivers Park Rd Sneads, Fl 32460",
    "phone": "",
    "lat": 30.739,
    "lng": -84.93589,
    "icon": "/images/icons/stateParks.png",
    "contentString": "State Park blurb goes here",
    "category": "statepark"
  },
  {
    "title": "Estero Bay Preserve State Park",
    "address": "3800 Corkscrew Road Estero, Fl 33928",
    "phone": "",
    "lat": 26.433,
    "lng": -81.81537,
    "icon": "/images/icons/stateParks.png",
    "contentString": "State Park blurb goes here",
    "category": "statepark"
  },
  {
    "title": "Marjorie Harris Carr Cross Florida Greenways State Recreation and Conservation Area",
    "address": "8282 S.E. Highway 314 Ocala, Fl 34470",
    "phone": "",
    "lat": 29.18481,
    "lng": -82.01655,
    "icon": "/images/icons/stateParks.png",
    "contentString": "State Park blurb goes here",
    "category": "statepark"
  },
  {
    "title": "Honeymoon Island State Park",
    "address": "#1 Causeway Blvd Dunedin, Fl 34698",
    "phone": "",
    "lat": 28.05965,
    "lng": -82.81215,
    "icon": "/images/icons/stateParks.png",
    "contentString": "State Park blurb goes here",
    "category": "statepark"
  },
  {
    "title": "Caladesi Island State Park",
    "address": "Caladesi Island State Park Dunedin, Fl 34698",
    "phone": "",
    "lat": 28.06101,
    "lng": -82.8251,
    "icon": "/images/icons/stateParks.png",
    "contentString": "State Park blurb goes here",
    "category": "statepark"
  },
  {
    "title": "San Felasco Hammock Preserve State Park",
    "address": "12720 Nw 109 Lane Alachua, Fl 32615",
    "phone": "",
    "lat": 29.7511,
    "lng": -82.47839,
    "icon": "/images/icons/stateParks.png",
    "contentString": "State Park blurb goes here",
    "category": "statepark"
  },
  {
    "title": "Skyway Fishing Pier State Park",
    "address": "Skyway Fishing Pier State Park Interstate 275, St. Petersburg, Fl",
    "phone": "",
    "lat": 27.87867,
    "lng": -82.65894,
    "icon": "/images/icons/stateParks.png",
    "contentString": "State Park blurb goes here",
    "category": "statepark"
  },
  {
    "title": "Palatka-to-St. Augustine State Trail",
    "address": "Palatka-To-St. Augustine State Trail State Rd. 207 Armstrong, Fl 32033",
    "phone": "",
    "lat": 29.87833,
    "lng": -81.32865,
    "icon": "/images/icons/stateParks.png",
    "contentString": "State Park blurb goes here",
    "category": "statepark"
  },
  {
    "title": "O'Leno State Park",
    "address": "410 Se O'Leno Park Road High Springs, Fl 32643",
    "phone": "",
    "lat": 29.91524,
    "lng": -82.58105,
    "icon": "/images/icons/stateParks.png",
    "contentString": "State Park blurb goes here",
    "category": "statepark"
  },
  {
    "title": "Lake Talquin State Park",
    "address": "14850 Jack Vause Landing Rd. Tallahassee, Fl 32310",
    "phone": "",
    "lat": 30.43656,
    "lng": -84.53648,
    "icon": "/images/icons/stateParks.png",
    "contentString": "State Park blurb goes here",
    "category": "statepark"
  },
  {
    "title": "Anderson's Landing (Managed by Manatee Springs State Park)",
    "address": "23103 Se 349 Hwy, Suwannee, Fl 32692",
    "phone": "",
    "lat": 29.95674,
    "lng": -82.92156,
    "icon": "/images/icons/stateParks.png",
    "contentString": "State Park blurb goes here",
    "category": "statepark"
  },
  {
    "title": "Marjorie Kinnan Rawlings Historic State Park",
    "address": "18700 South Cr 325 Hawthorne, Fl 32640",
    "phone": "",
    "lat": 29.48146,
    "lng": -82.16147,
    "icon": "/images/icons/stateParks.png",
    "contentString": "State Park blurb goes here",
    "category": "statepark"
  },
  {
    "title": "Savannas Preserve State Park",
    "address": "9551 Gumbo Limbo Ln Jensen Beach, Fl 34957",
    "phone": "",
    "lat": 27.29035,
    "lng": -80.25325,
    "icon": "/images/icons/stateParks.png",
    "contentString": "State Park blurb goes here",
    "category": "statepark"
  },
  {
    "title": "Topsail Hill Preserve State Park",
    "address": "7525 W Scenic Hwy 30A Santa Rosa  Beach, Fl 32459",
    "phone": "",
    "lat": 30.36932,
    "lng": -86.27148,
    "icon": "/images/icons/stateParks.png",
    "contentString": "State Park blurb goes here",
    "category": "statepark"
  },
  {
    "title": "Waccasassa Bay Preserve State Park",
    "address": "Waccasassa Bay Preserve State Park, Inglis, Fl",
    "phone": "",
    "lat": 30.36999,
    "lng": -86.27299,
    "icon": "/images/icons/stateParks.png",
    "contentString": "State Park blurb goes here",
    "category": "statepark"
  },
  {
    "title": "Amelia Island State Park",
    "address": "9549 1St Coast Hwy, Fernandina Beach, Fl 32034",
    "phone": "",
    "lat": 30.55716,
    "lng": -81.44995,
    "icon": "/images/icons/stateParks.png",
    "contentString": "State Park blurb goes here",
    "category": "statepark"
  },
  {
    "title": "Little Talbot Island State Park",
    "address": "12157 Heckscher Dr Jacksonville, Fl 32226",
    "phone": "",
    "lat": 30.46024,
    "lng": -81.42245,
    "icon": "/images/icons/stateParks.png",
    "contentString": "State Park blurb goes here",
    "category": "statepark"
  },
  {
    "title": "Big Talbot Island State Park",
    "address": "15500 Bucaneer Trail, Jacksonville, Fl 32226",
    "phone": "",
    "lat": 29.4907,
    "lng": -81.54727,
    "icon": "/images/icons/stateParks.png",
    "contentString": "State Park blurb goes here",
    "category": "statepark"
  },
  {
    "title": "Delnor-Wiggins Pass State Park",
    "address": "11135 Gulf Shore Dr Naples, Fl 34108",
    "phone": "",
    "lat": 26.27223,
    "lng": -81.82597,
    "icon": "/images/icons/stateParks.png",
    "contentString": "State Park blurb goes here",
    "category": "statepark"
  },
  {
    "title": "Egmont Key State Park",
    "address": "Egmont Key State Park St. Petersburg, Fl 33715",
    "phone": "",
    "lat": 27.61348,
    "lng": -82.73836,
    "icon": "/images/icons/stateParks.png",
    "contentString": "State Park blurb goes here",
    "category": "statepark"
  },
  {
    "title": "Weeki Wachee Springs State Park",
    "address": "6131 Commercial Way Spring Hill, Fl 34606",
    "phone": "",
    "lat": 28.4944,
    "lng": -82.59586,
    "icon": "/images/icons/stateParks.png",
    "contentString": "State Park blurb goes here",
    "category": "statepark"
  },
  {
    "title": "Rainbow Springs State Park",
    "address": "19158 Sw 81St Place Rd Dunnellon, Fl 34432",
    "phone": "",
    "lat": 29.10339,
    "lng": -82.43913,
    "icon": "/images/icons/stateParks.png",
    "contentString": "State Park blurb goes here",
    "category": "statepark"
  },
  {
    "title": "Dagny Johnson Key Largo Hammock Botanical State Park",
    "address": "County Rd. 905 & Mile Marker 106 Key Largo, Fl 33037",
    "phone": "",
    "lat": 25.17272,
    "lng": -80.37278,
    "icon": "/images/icons/stateParks.png",
    "contentString": "State Park blurb goes here",
    "category": "statepark"
  },
  {
    "title": "John Pennekamp Coral Reef State Park",
    "address": "Key Largo, Fl 33037 Po Box 487",
    "phone": "",
    "lat": 25.14436,
    "lng": -80.39684,
    "icon": "/images/icons/stateParks.png",
    "contentString": "State Park blurb goes here",
    "category": "statepark"
  },
  {
    "title": "Blackwater Heritage State Trail",
    "address": "5533 Alabama Street Milton, Fl 32564",
    "phone": "",
    "lat": 30.63584,
    "lng": -87.0397,
    "icon": "/images/icons/stateParks.png",
    "contentString": "State Park blurb goes here",
    "category": "statepark"
  },
  {
    "title": "Silver Springs State Park",
    "address": "1425 Ne 58Th Ave Ocala, Fl 34470",
    "phone": "",
    "lat": 29.20105,
    "lng": -82.05031,
    "icon": "/images/icons/stateParks.png",
    "contentString": "State Park blurb goes here",
    "category": "statepark"
  },
  {
    "title": "Price's Scrub State Park",
    "address": "17930 Nw Hwy 320, Micanopy, Fl 32667",
    "phone": "",
    "lat": 29.45775,
    "lng": -82.31883,
    "icon": "/images/icons/stateParks.png",
    "contentString": "State Park blurb goes here",
    "category": "statepark"
  },
  {
    "title": "St. Andrews State Park",
    "address": "4607 State Park Lane Panama City, Fl 32408",
    "phone": "",
    "lat": 30.21505,
    "lng": -85.59139,
    "icon": "/images/icons/stateParks.png",
    "contentString": "State Park blurb goes here",
    "category": "statepark"
  },
  {
    "title": "Cayo Costa State Park",
    "address": "Cayo Costa State Park Captiva, Fl 33924",
    "phone": "From WWOOF Website",
    "lat": 26.686,
    "lng": -82.24582,
    "icon": "/images/icons/stateParks.png",
    "contentString": "State Park blurb goes here",
    "category": "statepark"
  },
  {
    "title": "Empower School and WWOOF Organic Farm",
    "address": "Umatilla, Florida, United States",
    "phone": "From WWOOF Website",
    "lat": 28.9294,
    "lng": -81.6656,
    "icon": "/images/icons/farm.png",
    "contentString": "n intensive pesticide free urban farming project producing vegetables, fruits, herbs and perennials.",
    "category": "organicfarm"
  },
  {
    "title": "Dickerson Farms WWOOF Organic Farm",
    "address": "Monticello, Florida, United States",
    "phone": "From WWOOF Website",
    "lat": 30.5452,
    "lng": -83.8702,
    "icon": "/images/icons/farm.png",
    "contentString": "Dickerson Farms is a farm/nursery. We grow veggies to eat, raise animals, and grow landscaping (woody shrubs, ornamental, and perennials). Some of the animals we raise are chickens, rabbits, goats,",
    "category": "organicfarm"
  },
  {
    "title": "Suburban to Sustainable WWOOF Organic Farm",
    "address": "COCONUT CREEK, Florida, United States",
    "phone": "From WWOOF Website",
    "lat": 26.2517,
    "lng": -80.1789,
    "icon": "/images/icons/farm.png",
    "contentString": "I have some community garden/food bank garden bed projects in September that I am seeking some help with. There will be soil prep, garden bed prep, some weeding and moving of a garden bed, along with",
    "category": "organicfarm"
  },
  {
    "title": "Serenity Acres Farm & Goat Dairy WWOOF Organic Farm",
    "address": "Pinetta, Florida, United States",
    "phone": "From WWOOF Website",
    "lat": 30.5941,
    "lng": -83.3524,
    "icon": "/images/icons/farm.png",
    "contentString": "Currently we ask a minimum of eight to 12 week stay to reduce the risk and exposure to Covid19 to the farm by minimizing turnover. We�d also be interested in longer term intentional community",
    "category": "organicfarm"
  },
  {
    "title": "Green Flamingo Organics (GFO) WWOOF Organic Farm",
    "address": "Oak Hill, Florida, United States",
    "phone": "From WWOOF Website",
    "lat": 28.8644,
    "lng": -80.8545,
    "icon": "/images/icons/farm.png",
    "contentString": "Green Flamingo is a 5 acre mixed vegetable farm using beyond organic practices. We grow seasonal produce for local farmers markets, a 40 person CSA, and local restaurants and health food stores. I",
    "category": "organicfarm"
  },
  {
    "title": "Finca Mycol WWOOF Organic Farm",
    "address": "St Augustine, Florida, United States",
    "phone": "From WWOOF Website",
    "lat": 29.9012,
    "lng": -81.3124,
    "icon": "/images/icons/farm.png",
    "contentString": "Finca Mycol is a 20-acre permaculture homestead that has been steadily transforming its landscape since 2002 to live in an eco-centric balance with nature and humans.  We have been a wwoof host since",
    "category": "organicfarm"
  },
  {
    "title": "Back to Earth Living WWOOF Organic Farm",
    "address": "Homestead, Florida, United States",
    "phone": "From WWOOF Website",
    "lat": 25.4687,
    "lng": -80.4776,
    "icon": "/images/icons/farm.png",
    "contentString": "The Covid-19 has changed our daily activities As of right now and for a long time in the future we are not running our B",
    "category": "organicfarm"
  },
  {
    "title": "Sweet Reboot Farm WWOOF Organic Farm",
    "address": "Fort Myers, Florida, United States",
    "phone": "From WWOOF Website",
    "lat": 26.6406,
    "lng": -81.8723,
    "icon": "/images/icons/farm.png",
    "contentString": "We have a passion for living a healthy lifestyle and helping others do the same. We believe that it is possible to live a healthy and happy life, free from disease. Our goal is to reboot our lives",
    "category": "organicfarm"
  },
  {
    "title": "Irish Acres Farm WWOOF Organic Farm",
    "address": "Brooksville, Florida, United States",
    "phone": "From WWOOF Website",
    "lat": 28.5554,
    "lng": -82.3889,
    "icon": "/images/icons/farm.png",
    "contentString": "Irish Acres is a farm located on the Brooksville ridge just south of the Historical City of Brooksville, Florida. We are thirty plus miles north of Tampa, FL and fifty miles west of Orlando, FL.",
    "category": "organicfarm"
  },
  {
    "title": "Pactum De Lux WWOOF Organic Farm",
    "address": "Orlando, Florida, United States",
    "phone": "From WWOOF Website",
    "lat": 28.5386,
    "lng": -81.3793,
    "icon": "/images/icons/farm.png",
    "contentString": "Find us on Facebook and Instagram, just type Pactum De Lux on google and you'll find us! Feel free to call or text at any time (407) 968-7358 We here at Pactum De Lux nonprofit corporation have",
    "category": "organicfarm"
  },
  {
    "title": "Circle T Farms WWOOF Organic Farm",
    "address": "Brooksville, Florida, United States",
    "phone": "From WWOOF Website",
    "lat": 28.5553,
    "lng": -82.3878,
    "icon": "/images/icons/farm.png",
    "contentString": "We are building a permaculture demonstration farm to show what can be done with permaculture design applied to farming. Permaculture is a holistic design method that focuses on agriculture techniques",
    "category": "organicfarm"
  },
  {
    "title": "Happy Bull Farms WWOOF Organic Farm",
    "address": "6700 Louella Dr, Fort Myers, FL, 33905",
    "phone": "From WWOOF Website",
    "lat": 26.6407,
    "lng": -81.8724,
    "icon": "/images/icons/farm.png",
    "contentString": "Here on the farm, we are beginning to take our adventure towards a biodiverse lifestyle. Current projects include: Building a chicken coop, cross fencing, building raised beds, and primitive",
    "category": "organicfarm"
  },
  {
    "title": "Compassion Farm",
    "address": "Naranja, Florida, United States",
    "phone": "From WWOOF Website",
    "lat": 25.5182,
    "lng": -80.4228,
    "icon": "/images/icons/farm.png",
    "contentString": "Compassion Farm is a beautiful rare tropical hammock and ecosystem full of indigenous plants, trees and flowers in Redland Florida located  30 Miles south of Miami Beach and Miami International",
    "category": "organicfarm"
  },
  {
    "title": "Selvas farm",
    "address": "Ft mccoy, Florida, United States",
    "phone": "From WWOOF Website",
    "lat": 29.365,
    "lng": -81.967,
    "icon": "/images/icons/farm.png",
    "contentString": "We are a 148-acre diversified regenerative agricultural farm in Orange Springs, Florida. We live in a natural central Florida ecosystem with wild pigs, deer, and turkey roaming the property and",
    "category": "organicfarm"
  },
  {
    "title": "Anderson's Tropical Fruit Farm",
    "address": "West Palm Beach, Florida, United States",
    "phone": "From WWOOF Website",
    "lat": 26.7154,
    "lng": -80.0535,
    "icon": "/images/icons/farm.png",
    "contentString": "Hi my name is Daniel and I am a Wwoofer turned woof host.  I have been a Wwoofer for 3 years and I am now designing and building a farm in semi-tropical South Florida. I manage a lawn business that",
    "category": "organicfarm"
  },
  {
    "title": "Marando Farms & Ranch",
    "address": "Davie, Florida, United States",
    "phone": "From WWOOF Website",
    "lat": 26.0765,
    "lng": -80.2521,
    "icon": "/images/icons/farm.png",
    "contentString": "Ten acres of countryside with a lake and canals. We cultivate on five of our 10 acres. Vegetable, fruit farm and animal rescue ranch. We raise fruits, veggies and chickens for eggs to supplement our",
    "category": "organicfarm"
  },
  {
    "title": "Dragonfly Ranch",
    "address": "Hudson, Florida, United States",
    "phone": "From WWOOF Website",
    "lat": 28.3644,
    "lng": -82.6934,
    "icon": "/images/icons/farm.png",
    "contentString": "We are accepting applications for the 2020 seasons right now. Read to the end and you will find the instructions on how to apply. A completed application packet needs to be received before any",
    "category": "organicfarm"
  },
  {
    "title": "12 Seasons Farm",
    "address": "Fort Myers, Florida, United States",
    "phone": "From WWOOF Website",
    "lat": 26.6404,
    "lng": -81.8726,
    "icon": "/images/icons/farm.png",
    "contentString": "We are a small, diverse family farm growing 60 varieties of tomatoes, 20 varieties of citrus, 6 varieties of strawberries, a sprinkling of fruiting vegetables, flowers and pasture-raised chicken eggs",
    "category": "organicfarm"
  },
  {
    "title": "Tumble Farm",
    "address": "Lake Butler, Florida, United States",
    "phone": "From WWOOF Website",
    "lat": 30.0227,
    "lng": -82.3396,
    "icon": "/images/icons/farm.png",
    "contentString": "We are just starting out! Former WWOOFers turned owner operators, we would like to share this transition with our fellow WWOOFers. Of course, we have 1,000 plans for the place, but, this first yea",
    "category": "organicfarm"
  },
  {
    "title": "Caceres Organic Blueberry & Turmeric Farms",
    "address": "Old Town, Florida, United States",
    "phone": "From WWOOF Website",
    "lat": 29.6017,
    "lng": -82.9819,
    "icon": "/images/icons/farm.png",
    "contentString": "Art project, Bread making, Construction project, Cooking, Energy production, Fermentation, Fishing, Food preservation, Harvesting, Irrigation / watering, Landscaping, Natural building, Wood-working",
    "category": "organicfarm"
  },
  {
    "title": "The Lazy F",
    "address": "Ft. Myers, Florida, United States",
    "phone": "From WWOOF Website",
    "lat": 26.6408,
    "lng": -81.8723,
    "icon": "/images/icons/farm.png",
    "contentString": "The Lazy F is a 5-acre family farm in the heart of Lee County, Florida. Established in 2014, we raise rabbits, chickens and pigs and are working to establish a permaculture garden. The farm has large",
    "category": "organicfarm"
  },
  {
    "title": "Hacienda Rujoma",
    "address": "Dade City, Florida, United States",
    "phone": "From WWOOF Website",
    "lat": 28.3645,
    "lng": -82.1959,
    "icon": "/images/icons/farm.png",
    "contentString": "The farm is located in Dade City, Florida, about 40 minutes north of Tampa. It has 5 acres of cleared land with grass for farm animals to graze.  The main house is separated from the garage and an",
    "category": "organicfarm"
  },
  {
    "title": "Huckleberry Farms",
    "address": "Bunnell, Florida, United State",
    "phone": "From WWOOF Website",
    "lat": 29.4661,
    "lng": -81.2578,
    "icon": "/images/icons/farm.png",
    "contentString": "Huckleberry Farms is home to Flagler�s first stabling solution for people who travel with the herd. The 32 stall barn, 12 paddocks and 54 fenced acres gives both ride and mount will have plenty of",
    "category": "organicfarm"
  },
  {
    "title": "Mutley Way",
    "address": "Miami, Florida, United States",
    "phone": "From WWOOF Website",
    "lat": 25.7618,
    "lng": -80.1917,
    "icon": "/images/icons/farm.png",
    "contentString": "Biological pest control, Composting, Green construction, Mulching, Permaculture, Renewable energy",
    "category": "organicfarm"
  },
  {
    "title": "Ayavalla Land LLC",
    "address": "Tallahassee, Florida, United States",
    "phone": "From WWOOF Website",
    "lat": 30.4384,
    "lng": -84.2807,
    "icon": "/images/icons/farm.png",
    "contentString": "We are Ayavalla Land LLC, located at Ayavalla Plantation in the Red Hills region of North Florida, just north of Lake Jackson. This area offers a multitude of agricultural and recreational",
    "category": "organicfarm"
  },
  {
    "title": "Sow Exotic",
    "address": "Winter Haven, Florida, United States",
    "phone": "From WWOOF Website",
    "lat": 28.0222,
    "lng": -81.7328,
    "icon": "/images/icons/farm.png",
    "contentString": "We�re on a mission to grow the world�s largest collection of rare fruiting and medicinal plants! We�re Brittany, Jared, little George, and our furry fam� cultivating a sub-tropical edible paradise off the beaten path on our 2-acre plant nursery, food forest, and certified wildlife habitat in beautiful central Florida.",
    "category": "organicfarm"
  },
  {
    "title": "Iskcon Orlando",
    "address": "Orlando, Florida, United States",
    "phone": "From WWOOF Website",
    "lat": 28.5383,
    "lng": -81.3793,
    "icon": "/images/icons/farm.png",
    "contentString": "We are seeking the help from WWOOFers around the state or locally to help us create and maintain our vegetable garden. There is a lot of scope of creating an organic garden on our 7 acre land. Work",
    "category": "organicfarm"
  },
  {
    "title": "Blue Horizon Farm",
    "address": "Miami, Florida, United States",
    "phone": "From WWOOF Website",
    "lat": 25.7617,
    "lng": -80.1917,
    "icon": "/images/icons/farm.png",
    "contentString": "We use organic and bio-intensive methods to grow tropical fruit, vegetables, herbs, and flowers. Our farm is 1.5 acres, in the agricultural area of Miami, surrounded by conventional nurseries and",
    "category": "organicfarm"
  },
  {
    "title": "SunShine Coop Farm and Ranch",
    "address": "Osteen, Florida, United States",
    "phone": "From WWOOF Website",
    "lat": 28.8461,
    "lng": -81.1626,
    "icon": "/images/icons/farm.png",
    "contentString": "This Farm/Ranch is located in beautiful central Florida adjacent to the St. Johns River and nearby Orlando and Daytona Beach. The Farm is 15 Acres along a scenic highway that connects Orlando to New",
    "category": "organicfarm"
  },
  {
    "title": "Mill Creek Meadows Farm",
    "address": "Eustis, Florida, United States",
    "phone": "From WWOOF Website",
    "lat": 28.8528,
    "lng": -81.6854,
    "icon": "/images/icons/farm.png",
    "contentString": "Hello WWOOFers!Please give us a call if you're interested at 352-357-8708.We have 5 acres on which we garden and raise milk and beef cattle, sheep, chickens, and geese.Your main tasks would be to",
    "category": "organicfarm"
  },
  {
    "title": "Wildcat Creek Educational Center, Inc.",
    "address": "Blountstown, Florida, United States",
    "phone": "From WWOOF Website",
    "lat": 30.4435,
    "lng": -85.0452,
    "icon": "/images/icons/farm.png",
    "contentString": "located in Calhoun County Florida on highway 20 about 1 hour 15 minutes from Tallahassee Florida. The area is rural with nice rivers close by and the small town of Blountstown 7 miles away. The Gulf of Mexico is one hour away with nice beaches and warm, calm water. We have a small organic garden producing vegetables and herbs for the kitchen, our orchard is producing blueberries, plums and grapes. We have several eco-building projects on-going. We are off the grid totally, with a solar potable water well, composting toilets, solar showers, several living spaces with lights and fans, no air conditioning. We expect the WWOOFers to work 4 hours a day with instruction on gardening and building projects. We provide food for vegetarian meals, and clean safe places to stay.",
    "category": "organicfarm"
  },
  {
    "title": "Ranch Il Sole",
    "address": "Miami, Florida, United States",
    "phone": "From WWOOF Website",
    "lat": 25.7618,
    "lng": -80.1918,
    "icon": "/images/icons/farm.png",
    "contentString": "Subtropical 12 acres in the heart of Redlands includes ; 3 acres of longans, lychees, avocado, mangoe, lemon, lime, orange, jack fruit, egg fruit, star fruit, Surinam/Mauritius cherries, hog plums,",
    "category": "organicfarm"
  },
  {
    "title": "Ecofarm Florida",
    "address": "Plant City, Florida, United States",
    "phone": "From WWOOF Website",
    "lat": 25.7613,
    "lng": -80.1917,
    "icon": "/images/icons/farm.png",
    "contentString": "54 acre farm off main road; mostly lowland, woods, marshes, flatwoods. 3 acres in farm fields, sugar cane, non-certified organic vegetables, dairy and fruits for fresh markets. Small herd of Water",
    "category": "organicfarm"
  },
  {
    "title": "Simonton Farms",
    "address": "Micanopy, Florida, United States",
    "phone": "From WWOOF Website",
    "lat": 29.5047,
    "lng": -82.2798,
    "icon": "/images/icons/farm.png",
    "contentString": "Our family farm is 30 acres of land with old forest, developed over the years into an integrated whole, with many innovative inner connected systems; we have been in operation since 1983.We live at the edge of the beautiful, small, old-Florida town of Micanopy,FL. in Alachua County  Gainesville,FL is just 10 miles north of us giving you access to a fun college town and many of the world famous springs known for some of the best snorkeling and diving.",
    "category": "organicfarm"
  },
  {
    "title": "JAIJungle",
    "address": "Ocala, Florida, United States",
    "phone": "From WWOOF Website",
    "lat": 29.1873,
    "lng": -82.1401,
    "icon": "/images/icons/farm.png",
    "contentString": "JaiJungle is a growing food forest. Our first Tree was Moringa planted in 2018 along with 101 Edible Trees. We practice permaculture, agroforestry, and Indignous methods of farming. We are now taking",
    "category": "organicfarm"
  },
  {
    "title": "Inyoni Organic Farm",
    "address": "Naples, Florida, United States",
    "phone": "From WWOOF Website",
    "lat": 26.147,
    "lng": -81.7948,
    "icon": "/images/icons/farm.png",
    "contentString": "Inyoni Organic Farm is located in Naples, FL.  Our USDA Certified Organic 5-acre farm is surrounded by lush forests of pine, cypress, oak, and cabbage palms, yet we are only about 10 miles from",
    "category": "organicfarm"
  },
  {
    "title": "Handsome Harvest Farm",
    "address": "Quincy, Florida, United States",
    "phone": "From WWOOF Website",
    "lat": 30.588,
    "lng": -84.5911,
    "icon": "/images/icons/farm.png",
    "contentString": "Animal care, Cooking, Fermentation, Food preservation, Foraging, Greenhouse maintenance, Harvesting, Irrigation / watering, Kitchen help, Landscaping, Language practice, Machine & equipment mechanics, Meditation, Planting, Pruning, Scientific research, Seed saving, Seeding / transplanting, Self-sufficiency, Weeding, Yoga",
    "category": "organicfarm"
  },
  {
    "title": "Farm to Family",
    "address": "Alachua, Florida, United States",
    "phone": "From WWOOF Website",
    "lat": 29.7938,
    "lng": -82.4944,
    "icon": "/images/icons/farm.png",
    "contentString": "Farm to Family is a farm/orchard and is part of a 40 acre peaceful and beautiful piece of land that is tucked away at the end of a lime rock road that joins the paved county road a mile away. From",
    "category": "organicfarm"
  },
  {
    "title": "Urban Paradise",
    "address": "Davie, Florida, United States",
    "phone": "From WWOOF Website",
    "lat": 26.0765,
    "lng": -80.2522,
    "icon": "/images/icons/farm.png",
    "contentString": "We are an urban paradise located 15 minutes from the Fort Lauderdale airport. Primarily a teaching place, we have 20+ fruit trees and a wide variety of medicinal and edible plants on just 1/3 of an",
    "category": "organicfarm"
  },
  {
    "title": "Great Spirit Farm Healing & Retreat Center",
    "address": "Brooksville, Florida, United States",
    "phone": "From WWOOF Website",
    "lat": 28.5554,
    "lng": -82.388,
    "icon": "/images/icons/farm.png",
    "contentString": "Animal care, Art project, Bread making, Community outreach, Construction project, Cooking, Fermentation, Foraging, Forestry, Greenhouse maintenance, Harvesting, Help with eco-projects, Irrigation / watering, Kitchen help, Landscaping, Language practice, Machine & equipment mechanics, Meditation, Natural building, Planting, Pruning, Seed saving, Seeding / transplanting, Self-sufficiency, Sell at farmers markets, Trail maintenance, Weeding, Wild crafting, Yoga",
    "category": "organicfarm"
  },
  {
    "title": "CoLab Farms",
    "address": "Indiantown, Florida, United States",
    "phone": "From WWOOF Website",
    "lat": 27.0273,
    "lng": -80.4856,
    "icon": "/images/icons/farm.png",
    "contentString": "We grow primarily inside a 17,000sq ft greenhouse using aeroponic vertical towers and also coconut coir. We have 5 acres of rich soil available on the property which we hope to cultivate in the near future. We strive to be as eco-friendly as possible in everything we do, creating something much more sustainable for our society and for our Earth.",
    "category": "organicfarm"
  },
  {
    "title": "LifeGlow Organic Farm",
    "address": "Hudson, Florida, United States",
    "phone": "From WWOOF Website",
    "lat": 28.3645,
    "lng": -82.6934,
    "icon": "/images/icons/farm.png",
    "contentString": "The mission and goals of Life Glow Organic Farms revolves around sustainable food, farming, and business practices. The following are the farm's long-term goals:To continue providing organic and whole foods for members of the community and visitors.To continue focusing their efforts on Eco-friendly and handcrafted products.To educate visitors and community members on the benefits of organic foods and environmental sustainability.To continue their environmental stewardship by humanely raising their farm animals and not using chemical pesticides or fertilizers.As a long-term project, Life Glow Organic Farm plans to be completely self-sufficient.",
    "category": "organicfarm"
  },
  {
    "title": "Sustainable Kashi",
    "address": "Sebastian, Florida, United States",
    "phone": "From WWOOF Website",
    "lat": 27.8165,
    "lng": -80.4706,
    "icon": "/images/icons/farm.png",
    "contentString": "Sustainable Kashi is looking for energetic people to work trade. Here at Sustainable Kashi we are at the intersection of Permaculture and Spirituality. Together we are working to live responsibly, giving back to the earth and reducing our reliance on unsustainable energy; while using every resource with mindfulness. All things working together is an essential part of life here at Kashi, just as each spoke reinforces a wheel. Skills are acquired in each activity we do together� meaning the more you do, the more you learn. Workdays are an opportunity for growth and experience. You can develop finesse, dexterity, fluidity with tools, and creative problem solving. It can�t happen without full involvement and commitment to the task. The community here is serene, a great place to hone these qualities and resonate more fully with those who choose to live together. Sustainable Kashi is a community based permaculture project with close to 100 residents, located on the beautiful grounds of Kashi Ashram, an interfaith spiritual community in South Florida.",
    "category": "organicfarm"
  },
  {
    "title": "Lox Farms",
    "address": "Loxahatchee, Florida, United States",
    "phone": "From WWOOF Website",
    "lat": 26.7716,
    "lng": -80.2389,
    "icon": "/images/icons/farm.png",
    "contentString": "Lox Farms is a 10 acre bio-intensive, Certified Naturally Grown farm. Currently, we have 3 acres under cultivation. Although we are not a certified organic farm, we are fully committed to using only organic listed products and practices. The farm focuses on building and maintaining soil quality by using practices such as crop rotation, no-till, hand cultivation, and cover cropping.Since we grow in South Florida our season runs through fall/winter/spring. We start planting heavily in August and grow through May. In order to really grasp small scale, bio-intesive farming with a large crop variety, we encourage long term stays over short term. We require a 4 week minimum.",
    "category": "organicfarm"
  },
  {
    "title": "Lalitha Farms",
    "address": "Miami, Florida, United States",
    "phone": "From WWOOF Website",
    "lat": 25.7618,
    "lng": -80.1918,
    "icon": "/images/icons/farm.png",
    "contentString": "Just bought a fruit farm.Need help with permaculture designing/need help with Planting trees/ watering saplings/minor repairs/goal is to polyculture farm in 3-5 years to grow 50-60 varities of tropical fruit/have electricity/internet access/would add rv pads soon/sola",
    "category": "organicfarm"
  },
  {
    "title": "Pike Wellness",
    "address": "Jupiter, Florida, United States",
    "phone": "From WWOOF Website",
    "lat": 26.9343,
    "lng": -80.0942,
    "icon": "/images/icons/farm.png",
    "contentString": "We are happy to accept individuals, families and pets! Our farms grows many tropical fruits and we are beginning to cultivate edible flowers and grasses and just added a chicken coop and beehive! We",
    "category": "organicfarm"
  },
  {
    "title": "Common Ground Farm",
    "address": "DeLand, Florida, United States",
    "phone": "From WWOOF Website",
    "lat": 29.0283,
    "lng": -81.303,
    "icon": "/images/icons/farm.png",
    "contentString": "We are currently looking for WWOOFers who are interested in organic farming. We are a green organic vegetable/herb farm located in DeLand, Florida about 1 hour east of Orlando and 30 minutes from",
    "category": "organicfarm"
  },
  {
    "title": "Lake Ranch",
    "address": "Weirsdale, Florida, United States",
    "phone": "From WWOOF Website",
    "lat": 28.9819,
    "lng": -81.9243,
    "icon": "/images/icons/farm.png",
    "contentString": "Our 18 acre ranch is located on beautiful Lake Weir in Weirsdale, Florida. We are located in Marion County between o Ocala and the Villages. There are many water sport activities available right on our lake. We are close to the Ocala National Forest and many of the beautiful springs Florida has to offer. Withing 1 hour 1/2 you can be either at the beach of the Atlantic Ocean or The Golf of Mexico. We are a small farm with about a hundred animals that consist of different livestock like ducks, chickens, geese, a turkey, horses, cattle, sheep, goats donkey and rabbits, dogs and cats We operate a small farm store where we offer homemade farm goods like breads, milk, cakes etc. We are a family of 4 Rolf (50), Sabine (50) Lilly (14) and Luke (11) and would love to have your help on our farm doing a little bit of everything",
    "category": "organicfarm"
  },
  {
    "title": "Wendel & Nancy's Dream Eden Ranch",
    "address": "Lake Panasoffkee, Florida, United States",
    "phone": "From WWOOF Website",
    "lat": 28.7877,
    "lng": -82.1333,
    "icon": "/images/icons/farm.png",
    "contentString": "have idyllic accommodations on our ecological fruit & vegetable farm to trade for weeding. Yes, weeding for room & board!  Can't beat Florida weather in winter, which is our growing season for annuals. Homestead includes an edible & native plant nursery.  We actively use all permaculture elements such as composting toilets, soil generation, rain catchment, diversity, PVs; our livestock are water buffalo & chickens, our pets are dogs & cats. Extra bedrooms in main house.  Near Nature Coast, springs, lots of public land, Gulf & Atlantic beaches are 2 hrs away. 4 to 6 hrs/day weeding, transplanting, harvesting, cooking & food processing, pruning, composting, watering, animal care, & nursery maintenance. 1-2 months stays are good.  Sorry, no pets.  If you are interested in plant identification or propagation, we have a lot to offer.  Someone who likes to cook or process food would be fabulous. Farm is freegan too.We would really appreciate someone who likes to keep a clean environment, organize stuff or maintain landscapes",
    "category": "organicfarm"
  },
  {
    "title": "Rogue Biodynamics",
    "address": "White Springs, Florida, United States",
    "phone": "From WWOOF Website",
    "lat": 30.3297,
    "lng": -82.759,
    "icon": "/images/icons/farm.png",
    "contentString": "itiating regenerative agriculture farm from scratch. Will include bees, cows, sheep, biochar, chickens, soldier flies, red worms, aquaponics, etc. 145 wooded acres. High tech integrations with IOT, AI, machine learning, and big data.",
    "category": "organicfarm"
  }
]